{
   "0": {
      "name": "Abbey Wood",
      "lat": 51.4911,
      "long": 0.1214,
      "tlc": "ABW"
   },
   "1": {
      "name": "Aber",
      "lat": 51.575,
      "long": -3.2298,
      "tlc": "ABE"
   },
   "2": {
      "name": "Abercynon",
      "lat": 51.6447,
      "long": -3.327,
      "tlc": "ACY"
   },
   "3": {
      "name": "Aberdare",
      "lat": 51.7151,
      "long": -3.4431,
      "tlc": "ABA"
   },
   "4": {
      "name": "Aberdeen",
      "lat": 57.1437,
      "long": -2.0987,
      "tlc": "ABD"
   },
   "5": {
      "name": "Aberdour",
      "lat": 56.0546,
      "long": -3.3006,
      "tlc": "AUR"
   },
   "6": {
      "name": "Aberdovey",
      "lat": 52.544,
      "long": -4.0571,
      "tlc": "AVY"
   },
   "7": {
      "name": "Abererch",
      "lat": 52.8986,
      "long": -4.3742,
      "tlc": "ABH"
   },
   "8": {
      "name": "Abergavenny",
      "lat": 51.8167,
      "long": -3.0096,
      "tlc": "AGV"
   },
   "9": {
      "name": "Abergele and Pensarn",
      "lat": 53.2946,
      "long": -3.5826,
      "tlc": "AGL"
   },
   "10": {
      "name": "Aberystwyth",
      "lat": 52.414,
      "long": -4.0819,
      "tlc": "AYW"
   },
   "11": {
      "name": "Accrington",
      "lat": 53.753,
      "long": -2.3695,
      "tlc": "ACR"
   },
   "12": {
      "name": "Achanalt",
      "lat": 57.6096,
      "long": -4.9139,
      "tlc": "AAT"
   },
   "13": {
      "name": "Achnasheen",
      "lat": 57.5793,
      "long": -5.0723,
      "tlc": "ACN"
   },
   "14": {
      "name": "Achnashellach",
      "lat": 57.4821,
      "long": -5.3331,
      "tlc": "ACH"
   },
   "15": {
      "name": "Acklington",
      "lat": 55.3071,
      "long": -1.6518,
      "tlc": "ACK"
   },
   "16": {
      "name": "Acle",
      "lat": 52.6347,
      "long": 1.5439,
      "tlc": "ACL"
   },
   "17": {
      "name": "Acocks Green",
      "lat": 52.4493,
      "long": -1.819,
      "tlc": "ACG"
   },
   "18": {
      "name": "Acton Bridge (Cheshire)",
      "lat": 53.2665,
      "long": -2.6031,
      "tlc": "ACB"
   },
   "19": {
      "name": "Acton Central",
      "lat": 51.5087,
      "long": -0.263,
      "tlc": "ACC"
   },
   "20": {
      "name": "Acton Main Line",
      "lat": 51.5172,
      "long": -0.2668,
      "tlc": "AML"
   },
   "21": {
      "name": "Adderley Park",
      "lat": 52.4831,
      "long": -1.8559,
      "tlc": "ADD"
   },
   "22": {
      "name": "Addiewell",
      "lat": 55.8434,
      "long": -3.6065,
      "tlc": "ADW"
   },
   "23": {
      "name": "Addlestone",
      "lat": 51.373,
      "long": -0.4845,
      "tlc": "ASN"
   },
   "24": {
      "name": "Adisham",
      "lat": 51.2412,
      "long": 1.1991,
      "tlc": "ADM"
   },
   "25": {
      "name": "Adlington (Cheshire)",
      "lat": 53.3196,
      "long": -2.1336,
      "tlc": "ADC"
   },
   "26": {
      "name": "Adlington (Lancashire)",
      "lat": 53.6132,
      "long": -2.6031,
      "tlc": "ADL"
   },
   "27": {
      "name": "Adwick",
      "lat": 53.5723,
      "long": -1.1804,
      "tlc": "AWK"
   },
   "28": {
      "name": "Aigburth",
      "lat": 53.3646,
      "long": -2.9272,
      "tlc": "AIG"
   },
   "29": {
      "name": "Ainsdale",
      "lat": 53.602,
      "long": -3.0427,
      "tlc": "ANS"
   },
   "30": {
      "name": "Aintree",
      "lat": 53.4739,
      "long": -2.9563,
      "tlc": "AIN"
   },
   "31": {
      "name": "Airbles",
      "lat": 55.7828,
      "long": -3.9942,
      "tlc": "AIR"
   },
   "32": {
      "name": "Airdrie",
      "lat": 55.864,
      "long": -3.9829,
      "tlc": "ADR"
   },
   "33": {
      "name": "Albany Park",
      "lat": 51.4355,
      "long": 0.1257,
      "tlc": "AYP"
   },
   "34": {
      "name": "Albrighton",
      "lat": 52.6379,
      "long": -2.2689,
      "tlc": "ALB"
   },
   "35": {
      "name": "Alderley Edge",
      "lat": 53.3038,
      "long": -2.2368,
      "tlc": "ALD"
   },
   "36": {
      "name": "Aldermaston",
      "lat": 51.402,
      "long": -1.1374,
      "tlc": "AMT"
   },
   "37": {
      "name": "Aldershot",
      "lat": 51.2464,
      "long": -0.7599,
      "tlc": "AHT"
   },
   "38": {
      "name": "Aldrington",
      "lat": 50.8364,
      "long": -0.1838,
      "tlc": "AGT"
   },
   "39": {
      "name": "Alexandra Palace",
      "lat": 51.5979,
      "long": -0.1202,
      "tlc": "AAP"
   },
   "40": {
      "name": "Alexandra Parade",
      "lat": 55.8632,
      "long": -4.2106,
      "tlc": "AXP"
   },
   "41": {
      "name": "Alexandria",
      "lat": 55.9851,
      "long": -4.5775,
      "tlc": "ALX"
   },
   "42": {
      "name": "Alfreton",
      "lat": 53.1004,
      "long": -1.3697,
      "tlc": "ALF"
   },
   "43": {
      "name": "Allens West",
      "lat": 54.5246,
      "long": -1.3611,
      "tlc": "ALW"
   },
   "44": {
      "name": "Alloa",
      "lat": 56.1178,
      "long": -3.7901,
      "tlc": "ALO"
   },
   "45": {
      "name": "Alness",
      "lat": 57.6944,
      "long": -4.2497,
      "tlc": "ASS"
   },
   "46": {
      "name": "Alnmouth",
      "lat": 55.3928,
      "long": -1.6366,
      "tlc": "ALM"
   },
   "47": {
      "name": "Alresford (Essex)",
      "lat": 51.854,
      "long": 0.9974,
      "tlc": "ALR"
   },
   "48": {
      "name": "Alsager",
      "lat": 53.093,
      "long": -2.2991,
      "tlc": "ASG"
   },
   "49": {
      "name": "Althorne (Essex)",
      "lat": 51.6479,
      "long": 0.7525,
      "tlc": "ALN"
   },
   "50": {
      "name": "Althorpe",
      "lat": 53.5855,
      "long": -0.7332,
      "tlc": "ALP"
   },
   "51": {
      "name": "Altnabreac",
      "lat": 58.3882,
      "long": -3.7063,
      "tlc": "ABC"
   },
   "52": {
      "name": "Alton",
      "lat": 51.152,
      "long": -0.9669,
      "tlc": "AON"
   },
   "53": {
      "name": "Altrincham",
      "lat": 53.3877,
      "long": -2.3469,
      "tlc": "ALT"
   },
   "54": {
      "name": "Alvechurch",
      "lat": 52.3461,
      "long": -1.9677,
      "tlc": "ALV"
   },
   "55": {
      "name": "Ambergate",
      "lat": 53.0605,
      "long": -1.4807,
      "tlc": "AMB"
   },
   "56": {
      "name": "Amberley",
      "lat": 50.8967,
      "long": -0.542,
      "tlc": "AMY"
   },
   "57": {
      "name": "Amersham",
      "lat": 51.6742,
      "long": -0.6076,
      "tlc": "AMR"
   },
   "58": {
      "name": "Ammanford",
      "lat": 51.796,
      "long": -3.9967,
      "tlc": "AMF"
   },
   "59": {
      "name": "Ancaster",
      "lat": 52.9877,
      "long": -0.5356,
      "tlc": "ANC"
   },
   "60": {
      "name": "Anderston",
      "lat": 55.8599,
      "long": -4.271,
      "tlc": "AND"
   },
   "61": {
      "name": "Andover",
      "lat": 51.2115,
      "long": -1.4922,
      "tlc": "ADV"
   },
   "62": {
      "name": "Anerley",
      "lat": 51.4122,
      "long": -0.0659,
      "tlc": "ANZ"
   },
   "63": {
      "name": "Angel Road",
      "lat": 51.6124,
      "long": -0.0488,
      "tlc": "AGR"
   },
   "64": {
      "name": "Angmering",
      "lat": 50.8166,
      "long": -0.4894,
      "tlc": "ANG"
   },
   "65": {
      "name": "Annan",
      "lat": 54.9838,
      "long": -3.2626,
      "tlc": "ANN"
   },
   "66": {
      "name": "Anniesland",
      "lat": 55.8894,
      "long": -4.322,
      "tlc": "ANL"
   },
   "67": {
      "name": "Ansdell and Fairhaven",
      "lat": 53.7415,
      "long": -2.993,
      "tlc": "AFV"
   },
   "68": {
      "name": "Apperley Bridge",
      "lat": 53.8418,
      "long": -1.7058,
      "tlc": "APY"
   },
   "69": {
      "name": "Appleby",
      "lat": 54.5803,
      "long": -2.4867,
      "tlc": "APP"
   },
   "70": {
      "name": "Appledore (Kent)",
      "lat": 51.0332,
      "long": 0.8163,
      "tlc": "APD"
   },
   "71": {
      "name": "Appleford",
      "lat": 51.6396,
      "long": -1.2421,
      "tlc": "APF"
   },
   "72": {
      "name": "Appley Bridge",
      "lat": 53.5787,
      "long": -2.7193,
      "tlc": "APB"
   },
   "73": {
      "name": "Apsley",
      "lat": 51.7325,
      "long": -0.4629,
      "tlc": "APS"
   },
   "74": {
      "name": "Arbroath",
      "lat": 56.5596,
      "long": -2.5889,
      "tlc": "ARB"
   },
   "75": {
      "name": "Ardgay",
      "lat": 57.8815,
      "long": -4.3621,
      "tlc": "ARD"
   },
   "76": {
      "name": "Ardlui",
      "lat": 56.302,
      "long": -4.7217,
      "tlc": "AUI"
   },
   "77": {
      "name": "Ardrossan Harbour",
      "lat": 55.6399,
      "long": -4.8211,
      "tlc": "ADS"
   },
   "78": {
      "name": "Ardrossan South Beach",
      "lat": 55.6414,
      "long": -4.8012,
      "tlc": "ASB"
   },
   "79": {
      "name": "Ardrossan Town",
      "lat": 55.6397,
      "long": -4.8127,
      "tlc": "ADN"
   },
   "80": {
      "name": "Ardwick",
      "lat": 53.4713,
      "long": -2.2139,
      "tlc": "ADK"
   },
   "81": {
      "name": "Argyle Street",
      "lat": 55.8573,
      "long": -4.2507,
      "tlc": "AGS"
   },
   "82": {
      "name": "Arisaig",
      "lat": 56.9126,
      "long": -5.8391,
      "tlc": "ARG"
   },
   "83": {
      "name": "Arlesey",
      "lat": 52.026,
      "long": -0.2663,
      "tlc": "ARL"
   },
   "84": {
      "name": "Armadale (West Lothian)",
      "lat": 55.8857,
      "long": -3.6954,
      "tlc": "ARM"
   },
   "85": {
      "name": "Armathwaite",
      "lat": 54.8095,
      "long": -2.7721,
      "tlc": "AWT"
   },
   "86": {
      "name": "Arnside",
      "lat": 54.2027,
      "long": -2.8282,
      "tlc": "ARN"
   },
   "87": {
      "name": "Arram",
      "lat": 53.8843,
      "long": -0.4266,
      "tlc": "ARR"
   },
   "88": {
      "name": "Arrochar and Tarbet",
      "lat": 56.204,
      "long": -4.7228,
      "tlc": "ART"
   },
   "89": {
      "name": "Arundel",
      "lat": 50.8482,
      "long": -0.5462,
      "tlc": "ARU"
   },
   "90": {
      "name": "Ascot (Berks)",
      "lat": 51.4062,
      "long": -0.6758,
      "tlc": "ACT"
   },
   "91": {
      "name": "Ascott-Under-Wychwood",
      "lat": 51.8673,
      "long": -1.5641,
      "tlc": "AUW"
   },
   "92": {
      "name": "Ash",
      "lat": 51.2496,
      "long": -0.7128,
      "tlc": "ASH"
   },
   "93": {
      "name": "Ash Vale",
      "lat": 51.2722,
      "long": -0.7216,
      "tlc": "AHV"
   },
   "94": {
      "name": "Ashburys",
      "lat": 53.4716,
      "long": -2.1944,
      "tlc": "ABY"
   },
   "95": {
      "name": "Ashchurch for Tewkesbury",
      "lat": 51.9989,
      "long": -2.1088,
      "tlc": "ASC"
   },
   "96": {
      "name": "Ashfield",
      "lat": 55.8889,
      "long": -4.2492,
      "tlc": "ASF"
   },
   "97": {
      "name": "Ashford (Surrey)",
      "lat": 51.4365,
      "long": -0.4681,
      "tlc": "AFS"
   },
   "98": {
      "name": "Ashford International",
      "lat": 51.1437,
      "long": 0.8762,
      "tlc": "AFK"
   },
   "99": {
      "name": "Ashley",
      "lat": 53.3557,
      "long": -2.3415,
      "tlc": "ASY"
   },
   "100": {
      "name": "Ashtead",
      "lat": 51.3179,
      "long": -0.3076,
      "tlc": "AHD"
   },
   "101": {
      "name": "Ashton-Under-Lyne",
      "lat": 53.4913,
      "long": -2.0943,
      "tlc": "AHN"
   },
   "102": {
      "name": "Ashurst (Kent)",
      "lat": 51.1287,
      "long": 0.1527,
      "tlc": "AHS"
   },
   "103": {
      "name": "Ashurst New Forest",
      "lat": 50.8899,
      "long": -1.5266,
      "tlc": "ANF"
   },
   "104": {
      "name": "Ashwell and Morden",
      "lat": 52.0308,
      "long": -0.1098,
      "tlc": "AWM"
   },
   "105": {
      "name": "Askam",
      "lat": 54.1889,
      "long": -3.2045,
      "tlc": "ASK"
   },
   "106": {
      "name": "Aslockton",
      "lat": 52.9515,
      "long": -0.8981,
      "tlc": "ALK"
   },
   "107": {
      "name": "Aspatria",
      "lat": 54.759,
      "long": -3.3319,
      "tlc": "ASP"
   },
   "108": {
      "name": "Aspley Guise",
      "lat": 52.0212,
      "long": -0.6323,
      "tlc": "APG"
   },
   "109": {
      "name": "Aston",
      "lat": 52.5042,
      "long": -1.8719,
      "tlc": "AST"
   },
   "110": {
      "name": "Atherstone",
      "lat": 52.579,
      "long": -1.5528,
      "tlc": "ATH"
   },
   "111": {
      "name": "Atherton",
      "lat": 53.5291,
      "long": -2.479,
      "tlc": "ATN"
   },
   "112": {
      "name": "Attadale",
      "lat": 57.395,
      "long": -5.4556,
      "tlc": "ATT"
   },
   "113": {
      "name": "Attenborough",
      "lat": 52.9062,
      "long": -1.2314,
      "tlc": "ATB"
   },
   "114": {
      "name": "Attleborough",
      "lat": 52.5145,
      "long": 1.0223,
      "tlc": "ATL"
   },
   "115": {
      "name": "Auchinleck",
      "lat": 55.4703,
      "long": -4.2954,
      "tlc": "AUK"
   },
   "116": {
      "name": "Audley End",
      "lat": 52.0044,
      "long": 0.2072,
      "tlc": "AUD"
   },
   "117": {
      "name": "Aughton Park",
      "lat": 53.5543,
      "long": -2.8952,
      "tlc": "AUG"
   },
   "118": {
      "name": "Aviemore",
      "lat": 57.1885,
      "long": -3.8289,
      "tlc": "AVM"
   },
   "119": {
      "name": "Avoncliff",
      "lat": 51.3397,
      "long": -2.2813,
      "tlc": "AVF"
   },
   "120": {
      "name": "Avonmouth",
      "lat": 51.5004,
      "long": -2.6995,
      "tlc": "AVN"
   },
   "121": {
      "name": "Axminster",
      "lat": 50.7793,
      "long": -3.0047,
      "tlc": "AXM"
   },
   "122": {
      "name": "Aylesbury",
      "lat": 51.8139,
      "long": -0.8151,
      "tlc": "AYS"
   },
   "123": {
      "name": "Aylesbury Vale Parkway",
      "lat": 51.8312,
      "long": -0.8602,
      "tlc": "AVP"
   },
   "124": {
      "name": "Aylesford",
      "lat": 51.3013,
      "long": 0.4662,
      "tlc": "AYL"
   },
   "125": {
      "name": "Aylesham",
      "lat": 51.2273,
      "long": 1.2095,
      "tlc": "AYH"
   },
   "126": {
      "name": "Ayr",
      "lat": 55.4581,
      "long": -4.6259,
      "tlc": "AYR"
   },
   "127": {
      "name": "Bache",
      "lat": 53.2088,
      "long": -2.8917,
      "tlc": "BAC"
   },
   "128": {
      "name": "Baglan",
      "lat": 51.6155,
      "long": -3.8111,
      "tlc": "BAJ"
   },
   "129": {
      "name": "Bagshot",
      "lat": 51.3644,
      "long": -0.6887,
      "tlc": "BAG"
   },
   "130": {
      "name": "Baildon",
      "lat": 53.8502,
      "long": -1.7536,
      "tlc": "BLD"
   },
   "131": {
      "name": "Baillieston",
      "lat": 55.8445,
      "long": -4.1137,
      "tlc": "BIO"
   },
   "132": {
      "name": "Balcombe",
      "lat": 51.0555,
      "long": -0.1369,
      "tlc": "BAB"
   },
   "133": {
      "name": "Baldock",
      "lat": 51.9929,
      "long": -0.1876,
      "tlc": "BDK"
   },
   "134": {
      "name": "Balham",
      "lat": 51.4432,
      "long": -0.1524,
      "tlc": "BAL"
   },
   "135": {
      "name": "Balloch",
      "lat": 56.0029,
      "long": -4.5835,
      "tlc": "BHC"
   },
   "136": {
      "name": "Balmossie",
      "lat": 56.4746,
      "long": -2.839,
      "tlc": "BSI"
   },
   "137": {
      "name": "Bamber Bridge",
      "lat": 53.7269,
      "long": -2.6608,
      "tlc": "BMB"
   },
   "138": {
      "name": "Bamford",
      "lat": 53.339,
      "long": -1.6891,
      "tlc": "BAM"
   },
   "139": {
      "name": "Banavie",
      "lat": 56.8433,
      "long": -5.0954,
      "tlc": "BNV"
   },
   "140": {
      "name": "Banbury",
      "lat": 52.0603,
      "long": -1.3281,
      "tlc": "BAN"
   },
   "141": {
      "name": "Bangor (Gwynedd)",
      "lat": 53.2223,
      "long": -4.1359,
      "tlc": "BNG"
   },
   "142": {
      "name": "Bank Hall",
      "lat": 53.4375,
      "long": -2.9875,
      "tlc": "BAH"
   },
   "143": {
      "name": "Banstead",
      "lat": 51.3293,
      "long": -0.2132,
      "tlc": "BAD"
   },
   "144": {
      "name": "Barassie",
      "lat": 55.5611,
      "long": -4.6511,
      "tlc": "BSS"
   },
   "145": {
      "name": "Bardon Mill",
      "lat": 54.9745,
      "long": -2.3465,
      "tlc": "BLL"
   },
   "146": {
      "name": "Bare Lane",
      "lat": 54.0745,
      "long": -2.8353,
      "tlc": "BAR"
   },
   "147": {
      "name": "Bargeddie",
      "lat": 55.8513,
      "long": -4.0738,
      "tlc": "BGI"
   },
   "148": {
      "name": "Bargoed",
      "lat": 51.6923,
      "long": -3.2297,
      "tlc": "BGD"
   },
   "149": {
      "name": "Barking",
      "lat": 51.5395,
      "long": 0.0809,
      "tlc": "BKG"
   },
   "150": {
      "name": "Barming",
      "lat": 51.2849,
      "long": 0.479,
      "tlc": "BMG"
   },
   "151": {
      "name": "Barmouth",
      "lat": 52.7229,
      "long": -4.0566,
      "tlc": "BRM"
   },
   "152": {
      "name": "Barnehurst",
      "lat": 51.465,
      "long": 0.1596,
      "tlc": "BNH"
   },
   "153": {
      "name": "Barnes",
      "lat": 51.4671,
      "long": -0.2422,
      "tlc": "BNS"
   },
   "154": {
      "name": "Barnes Bridge",
      "lat": 51.472,
      "long": -0.2526,
      "tlc": "BNI"
   },
   "155": {
      "name": "Barnetby",
      "lat": 53.5751,
      "long": -0.4097,
      "tlc": "BTB"
   },
   "156": {
      "name": "Barnham",
      "lat": 50.8309,
      "long": -0.6397,
      "tlc": "BAA"
   },
   "157": {
      "name": "Barnhill",
      "lat": 55.8775,
      "long": -4.223,
      "tlc": "BNL"
   },
   "158": {
      "name": "Barnsley",
      "lat": 53.5543,
      "long": -1.4772,
      "tlc": "BNY"
   },
   "159": {
      "name": "Barnstaple",
      "lat": 51.074,
      "long": -4.0631,
      "tlc": "BNP"
   },
   "160": {
      "name": "Barnt Green",
      "lat": 52.3611,
      "long": -1.9925,
      "tlc": "BTG"
   },
   "161": {
      "name": "Barrhead",
      "lat": 55.8038,
      "long": -4.3973,
      "tlc": "BRR"
   },
   "162": {
      "name": "Barrhill",
      "lat": 55.097,
      "long": -4.7818,
      "tlc": "BRL"
   },
   "163": {
      "name": "Barrow Haven",
      "lat": 53.6974,
      "long": -0.393,
      "tlc": "BAV"
   },
   "164": {
      "name": "Barrow-In-Furness",
      "lat": 54.119,
      "long": -3.2261,
      "tlc": "BIF"
   },
   "165": {
      "name": "Barrow-Upon-Soar",
      "lat": 52.7493,
      "long": -1.1448,
      "tlc": "BWS"
   },
   "166": {
      "name": "Barry",
      "lat": 51.3968,
      "long": -3.285,
      "tlc": "BRY"
   },
   "167": {
      "name": "Barry Docks",
      "lat": 51.4024,
      "long": -3.2607,
      "tlc": "BYD"
   },
   "168": {
      "name": "Barry Island",
      "lat": 51.3924,
      "long": -3.2734,
      "tlc": "BYI"
   },
   "169": {
      "name": "Barry Links",
      "lat": 56.4932,
      "long": -2.7454,
      "tlc": "BYL"
   },
   "170": {
      "name": "Barton-On-Humber",
      "lat": 53.6889,
      "long": -0.4434,
      "tlc": "BAU"
   },
   "171": {
      "name": "Basildon",
      "lat": 51.5681,
      "long": 0.4568,
      "tlc": "BSO"
   },
   "172": {
      "name": "Basingstoke",
      "lat": 51.2684,
      "long": -1.0873,
      "tlc": "BSK"
   },
   "173": {
      "name": "Bat and Ball",
      "lat": 51.2898,
      "long": 0.1942,
      "tlc": "BBL"
   },
   "174": {
      "name": "Bath Spa",
      "lat": 51.3777,
      "long": -2.357,
      "tlc": "BTH"
   },
   "175": {
      "name": "Bathgate",
      "lat": 55.8972,
      "long": -3.6361,
      "tlc": "BHG"
   },
   "176": {
      "name": "Batley",
      "lat": 53.7099,
      "long": -1.623,
      "tlc": "BTL"
   },
   "177": {
      "name": "Battersby",
      "lat": 54.4577,
      "long": -1.093,
      "tlc": "BTT"
   },
   "178": {
      "name": "Battersea Park",
      "lat": 51.477,
      "long": -0.1475,
      "tlc": "BAK"
   },
   "179": {
      "name": "Battle",
      "lat": 50.9129,
      "long": 0.4947,
      "tlc": "BAT"
   },
   "180": {
      "name": "Battlesbridge",
      "lat": 51.6248,
      "long": 0.5653,
      "tlc": "BLB"
   },
   "181": {
      "name": "Bayford",
      "lat": 51.7577,
      "long": -0.0956,
      "tlc": "BAY"
   },
   "182": {
      "name": "Beaconsfield",
      "lat": 51.6113,
      "long": -0.6438,
      "tlc": "BCF"
   },
   "183": {
      "name": "Bearley",
      "lat": 52.2444,
      "long": -1.7503,
      "tlc": "BER"
   },
   "184": {
      "name": "Bearsden",
      "lat": 55.9171,
      "long": -4.332,
      "tlc": "BRN"
   },
   "185": {
      "name": "Bearsted",
      "lat": 51.2758,
      "long": 0.5776,
      "tlc": "BSD"
   },
   "186": {
      "name": "Beasdale",
      "lat": 56.8996,
      "long": -5.7638,
      "tlc": "BSL"
   },
   "187": {
      "name": "Beaulieu Road",
      "lat": 50.855,
      "long": -1.5047,
      "tlc": "BEU"
   },
   "188": {
      "name": "Beauly",
      "lat": 57.4783,
      "long": -4.4699,
      "tlc": "BEL"
   },
   "189": {
      "name": "Bebington",
      "lat": 53.3577,
      "long": -3.0036,
      "tlc": "BEB"
   },
   "190": {
      "name": "Beccles",
      "lat": 52.4585,
      "long": 1.5695,
      "tlc": "BCC"
   },
   "191": {
      "name": "Beckenham Hill",
      "lat": 51.4246,
      "long": -0.016,
      "tlc": "BEC"
   },
   "192": {
      "name": "Beckenham Junction",
      "lat": 51.4112,
      "long": -0.026,
      "tlc": "BKJ"
   },
   "193": {
      "name": "Bedford",
      "lat": 52.1362,
      "long": -0.4794,
      "tlc": "BDM"
   },
   "194": {
      "name": "Bedford St Johns",
      "lat": 52.1295,
      "long": -0.4675,
      "tlc": "BSJ"
   },
   "195": {
      "name": "Bedhampton",
      "lat": 50.854,
      "long": -0.9958,
      "tlc": "BDH"
   },
   "196": {
      "name": "Bedminster",
      "lat": 51.4401,
      "long": -2.5941,
      "tlc": "BMT"
   },
   "197": {
      "name": "Bedworth",
      "lat": 52.4793,
      "long": -1.4674,
      "tlc": "BEH"
   },
   "198": {
      "name": "Bedwyn",
      "lat": 51.3796,
      "long": -1.5988,
      "tlc": "BDW"
   },
   "199": {
      "name": "Beeston",
      "lat": 52.9208,
      "long": -1.2077,
      "tlc": "BEE"
   },
   "200": {
      "name": "Bekesbourne",
      "lat": 51.2614,
      "long": 1.1367,
      "tlc": "BKS"
   },
   "201": {
      "name": "Belle Vue",
      "lat": 53.4624,
      "long": -2.1805,
      "tlc": "BLV"
   },
   "202": {
      "name": "Bellgrove",
      "lat": 55.8567,
      "long": -4.2244,
      "tlc": "BLG"
   },
   "203": {
      "name": "Bellingham",
      "lat": 51.4329,
      "long": -0.0193,
      "tlc": "BGM"
   },
   "204": {
      "name": "Bellshill",
      "lat": 55.8171,
      "long": -4.0245,
      "tlc": "BLH"
   },
   "205": {
      "name": "Belmont",
      "lat": 51.3438,
      "long": -0.1989,
      "tlc": "BLM"
   },
   "206": {
      "name": "Belper",
      "lat": 53.0238,
      "long": -1.4825,
      "tlc": "BLP"
   },
   "207": {
      "name": "Beltring",
      "lat": 51.2047,
      "long": 0.4035,
      "tlc": "BEG"
   },
   "208": {
      "name": "Belvedere",
      "lat": 51.4921,
      "long": 0.1523,
      "tlc": "BVD"
   },
   "209": {
      "name": "Bempton",
      "lat": 54.1277,
      "long": -0.1805,
      "tlc": "BEM"
   },
   "210": {
      "name": "Ben Rhydding",
      "lat": 53.9257,
      "long": -1.7974,
      "tlc": "BEY"
   },
   "211": {
      "name": "Benfleet",
      "lat": 51.5439,
      "long": 0.5617,
      "tlc": "BEF"
   },
   "212": {
      "name": "Bentham",
      "lat": 54.1155,
      "long": -2.5107,
      "tlc": "BEN"
   },
   "213": {
      "name": "Bentley (Hampshire)",
      "lat": 51.1812,
      "long": -0.8681,
      "tlc": "BTY"
   },
   "214": {
      "name": "Bentley (South Yorkshire)",
      "lat": 53.5439,
      "long": -1.1509,
      "tlc": "BYK"
   },
   "215": {
      "name": "Bere Alston",
      "lat": 50.4856,
      "long": -4.2004,
      "tlc": "BAS"
   },
   "216": {
      "name": "Bere Ferrers",
      "lat": 50.4513,
      "long": -4.1814,
      "tlc": "BFE"
   },
   "217": {
      "name": "Berkhamsted",
      "lat": 51.7631,
      "long": -0.562,
      "tlc": "BKM"
   },
   "218": {
      "name": "Berkswell",
      "lat": 52.3959,
      "long": -1.6428,
      "tlc": "BKW"
   },
   "219": {
      "name": "Bermuda Park",
      "lat": 52.5014,
      "long": -1.4722,
      "tlc": "BEP"
   },
   "220": {
      "name": "Berney Arms",
      "lat": 52.5898,
      "long": 1.6304,
      "tlc": "BYA"
   },
   "221": {
      "name": "Berry Brow",
      "lat": 53.621,
      "long": -1.7934,
      "tlc": "BBW"
   },
   "222": {
      "name": "Berrylands",
      "lat": 51.399,
      "long": -0.2807,
      "tlc": "BRS"
   },
   "223": {
      "name": "Berwick (Sussex)",
      "lat": 50.8404,
      "long": 0.166,
      "tlc": "BRK"
   },
   "224": {
      "name": "Berwick-Upon-Tweed",
      "lat": 55.7743,
      "long": -2.011,
      "tlc": "BWK"
   },
   "225": {
      "name": "Bescar Lane",
      "lat": 53.6239,
      "long": -2.9146,
      "tlc": "BES"
   },
   "226": {
      "name": "Bescot Stadium",
      "lat": 52.5631,
      "long": -1.9911,
      "tlc": "BSC"
   },
   "227": {
      "name": "Betchworth",
      "lat": 51.2482,
      "long": -0.267,
      "tlc": "BTO"
   },
   "228": {
      "name": "Bethnal Green Rail",
      "lat": 51.5239,
      "long": -0.0596,
      "tlc": "BET"
   },
   "229": {
      "name": "Betws-y-Coed",
      "lat": 53.0921,
      "long": -3.8009,
      "tlc": "BYC"
   },
   "230": {
      "name": "Beverley",
      "lat": 53.8423,
      "long": -0.423,
      "tlc": "BEV"
   },
   "231": {
      "name": "Bexhill",
      "lat": 50.841,
      "long": 0.477,
      "tlc": "BEX"
   },
   "232": {
      "name": "Bexley",
      "lat": 51.4402,
      "long": 0.1479,
      "tlc": "BXY"
   },
   "233": {
      "name": "Bexleyheath",
      "lat": 51.4635,
      "long": 0.1337,
      "tlc": "BXH"
   },
   "234": {
      "name": "Bicester North",
      "lat": 51.9035,
      "long": -1.1504,
      "tlc": "BCS"
   },
   "235": {
      "name": "Bicester Village",
      "lat": 51.893,
      "long": -1.1488,
      "tlc": "BIT"
   },
   "236": {
      "name": "Bickley",
      "lat": 51.4001,
      "long": 0.0452,
      "tlc": "BKL"
   },
   "237": {
      "name": "Bidston",
      "lat": 53.4091,
      "long": -3.0786,
      "tlc": "BID"
   },
   "238": {
      "name": "Biggleswade",
      "lat": 52.0847,
      "long": -0.2612,
      "tlc": "BIW"
   },
   "239": {
      "name": "Bilbrook",
      "lat": 52.6237,
      "long": -2.1861,
      "tlc": "BBK"
   },
   "240": {
      "name": "Billericay",
      "lat": 51.6289,
      "long": 0.4186,
      "tlc": "BIC"
   },
   "241": {
      "name": "Billingham",
      "lat": 54.6056,
      "long": -1.2797,
      "tlc": "BIL"
   },
   "242": {
      "name": "Billingshurst",
      "lat": 51.0152,
      "long": -0.4503,
      "tlc": "BIG"
   },
   "243": {
      "name": "Bingham",
      "lat": 52.9542,
      "long": -0.9515,
      "tlc": "BIN"
   },
   "244": {
      "name": "Bingley",
      "lat": 53.8486,
      "long": -1.8373,
      "tlc": "BIY"
   },
   "245": {
      "name": "Birchgrove",
      "lat": 51.5216,
      "long": -3.2019,
      "tlc": "BCG"
   },
   "246": {
      "name": "Birchington-On-Sea",
      "lat": 51.3775,
      "long": 1.3014,
      "tlc": "BCH"
   },
   "247": {
      "name": "Birchwood",
      "lat": 53.4127,
      "long": -2.5253,
      "tlc": "BWD"
   },
   "248": {
      "name": "Birkbeck",
      "lat": 51.4039,
      "long": -0.0557,
      "tlc": "BIK"
   },
   "249": {
      "name": "Birkdale",
      "lat": 53.6341,
      "long": -3.0145,
      "tlc": "BDL"
   },
   "250": {
      "name": "Birkenhead Central",
      "lat": 53.3883,
      "long": -3.0208,
      "tlc": "BKC"
   },
   "251": {
      "name": "Birkenhead Hamilton Square",
      "lat": 53.3947,
      "long": -3.0137,
      "tlc": "BKQ"
   },
   "252": {
      "name": "Birkenhead North",
      "lat": 53.4044,
      "long": -3.0575,
      "tlc": "BKN"
   },
   "253": {
      "name": "Birkenhead Park",
      "lat": 53.3974,
      "long": -3.0391,
      "tlc": "BKP"
   },
   "254": {
      "name": "Birmingham International",
      "lat": 52.4508,
      "long": -1.7259,
      "tlc": "BHI"
   },
   "255": {
      "name": "Birmingham Moor Street",
      "lat": 52.4791,
      "long": -1.8925,
      "tlc": "BMO"
   },
   "256": {
      "name": "Birmingham New Street",
      "lat": 52.4778,
      "long": -1.9002,
      "tlc": "BHM"
   },
   "257": {
      "name": "Birmingham Snow Hill",
      "lat": 52.4834,
      "long": -1.8991,
      "tlc": "BSW"
   },
   "258": {
      "name": "Bishop Auckland",
      "lat": 54.6572,
      "long": -1.6777,
      "tlc": "BIA"
   },
   "259": {
      "name": "Bishopbriggs",
      "lat": 55.9039,
      "long": -4.2249,
      "tlc": "BBG"
   },
   "260": {
      "name": "Bishops Stortford",
      "lat": 51.8667,
      "long": 0.1649,
      "tlc": "BIS"
   },
   "261": {
      "name": "Bishopstone (Sussex)",
      "lat": 50.7801,
      "long": 0.0828,
      "tlc": "BIP"
   },
   "262": {
      "name": "Bishopton (Renfrewshire)",
      "lat": 55.9023,
      "long": -4.5005,
      "tlc": "BPT"
   },
   "263": {
      "name": "Bitterne",
      "lat": 50.9182,
      "long": -1.377,
      "tlc": "BTE"
   },
   "264": {
      "name": "Blackburn",
      "lat": 53.7465,
      "long": -2.4791,
      "tlc": "BBN"
   },
   "265": {
      "name": "Blackfriars",
      "lat": 51.5118,
      "long": -0.1033,
      "tlc": "BFR"
   },
   "266": {
      "name": "Blackheath",
      "lat": 51.4658,
      "long": 0.0089,
      "tlc": "BKH"
   },
   "267": {
      "name": "Blackhorse Road",
      "lat": 51.5866,
      "long": -0.0412,
      "tlc": "BHO"
   },
   "268": {
      "name": "Blackpool North",
      "lat": 53.8219,
      "long": -3.0493,
      "tlc": "BPN"
   },
   "269": {
      "name": "Blackpool Pleasure Beach",
      "lat": 53.788,
      "long": -3.0539,
      "tlc": "BPB"
   },
   "270": {
      "name": "Blackpool South",
      "lat": 53.7987,
      "long": -3.0489,
      "tlc": "BPS"
   },
   "271": {
      "name": "Blackridge",
      "lat": 55.8843,
      "long": -3.7508,
      "tlc": "BKR"
   },
   "272": {
      "name": "Blackrod",
      "lat": 53.5915,
      "long": -2.5695,
      "tlc": "BLK"
   },
   "273": {
      "name": "Blackwater",
      "lat": 51.3316,
      "long": -0.7767,
      "tlc": "BAW"
   },
   "274": {
      "name": "Blaenau Ffestiniog",
      "lat": 52.9946,
      "long": -3.9386,
      "tlc": "BFF"
   },
   "275": {
      "name": "Blair Atholl",
      "lat": 56.7656,
      "long": -3.8502,
      "tlc": "BLA"
   },
   "276": {
      "name": "Blairhill",
      "lat": 55.8665,
      "long": -4.0433,
      "tlc": "BAI"
   },
   "277": {
      "name": "Blake Street",
      "lat": 52.6049,
      "long": -1.8449,
      "tlc": "BKT"
   },
   "278": {
      "name": "Blakedown",
      "lat": 52.4064,
      "long": -2.1769,
      "tlc": "BKD"
   },
   "279": {
      "name": "Blantyre",
      "lat": 55.7973,
      "long": -4.087,
      "tlc": "BLT"
   },
   "280": {
      "name": "Blaydon",
      "lat": 54.9658,
      "long": -1.7126,
      "tlc": "BLO"
   },
   "281": {
      "name": "Bleasby",
      "lat": 53.0414,
      "long": -0.9437,
      "tlc": "BSB"
   },
   "282": {
      "name": "Bletchley",
      "lat": 51.9953,
      "long": -0.7363,
      "tlc": "BLY"
   },
   "283": {
      "name": "Bloxwich",
      "lat": 52.6182,
      "long": -2.0115,
      "tlc": "BLX"
   },
   "284": {
      "name": "Bloxwich North",
      "lat": 52.6254,
      "long": -2.0177,
      "tlc": "BWN"
   },
   "285": {
      "name": "Blundellsands and Crosby",
      "lat": 53.4877,
      "long": -3.0399,
      "tlc": "BLN"
   },
   "286": {
      "name": "Blythe Bridge",
      "lat": 52.9681,
      "long": -2.067,
      "tlc": "BYB"
   },
   "287": {
      "name": "Bodmin Parkway",
      "lat": 50.4459,
      "long": -4.6629,
      "tlc": "BOD"
   },
   "288": {
      "name": "Bodorgan",
      "lat": 53.2043,
      "long": -4.418,
      "tlc": "BOR"
   },
   "289": {
      "name": "Bognor Regis",
      "lat": 50.7866,
      "long": -0.6762,
      "tlc": "BOG"
   },
   "290": {
      "name": "Bogston",
      "lat": 55.937,
      "long": -4.7114,
      "tlc": "BGS"
   },
   "291": {
      "name": "Bolton",
      "lat": 53.5741,
      "long": -2.4258,
      "tlc": "BON"
   },
   "292": {
      "name": "Bolton-Upon-Dearne",
      "lat": 53.5189,
      "long": -1.3115,
      "tlc": "BTD"
   },
   "293": {
      "name": "Bookham",
      "lat": 51.2887,
      "long": -0.384,
      "tlc": "BKA"
   },
   "294": {
      "name": "Bootle (Cumbria)",
      "lat": 54.2913,
      "long": -3.3939,
      "tlc": "BOC"
   },
   "295": {
      "name": "Bootle New Strand",
      "lat": 53.4534,
      "long": -2.9947,
      "tlc": "BNW"
   },
   "296": {
      "name": "Bootle Oriel Road",
      "lat": 53.4466,
      "long": -2.9957,
      "tlc": "BOT"
   },
   "297": {
      "name": "Bordesley",
      "lat": 52.4719,
      "long": -1.8778,
      "tlc": "BBS"
   },
   "298": {
      "name": "Borough Green and Wrotham",
      "lat": 51.2932,
      "long": 0.3062,
      "tlc": "BRG"
   },
   "299": {
      "name": "Borth",
      "lat": 52.491,
      "long": -4.0502,
      "tlc": "BRH"
   },
   "300": {
      "name": "Bosham",
      "lat": 50.8427,
      "long": -0.8474,
      "tlc": "BOH"
   },
   "301": {
      "name": "Boston",
      "lat": 52.9781,
      "long": -0.031,
      "tlc": "BSN"
   },
   "302": {
      "name": "Botley",
      "lat": 50.9165,
      "long": -1.2592,
      "tlc": "BOE"
   },
   "303": {
      "name": "Bottesford",
      "lat": 52.9446,
      "long": -0.7948,
      "tlc": "BTF"
   },
   "304": {
      "name": "Bourne End",
      "lat": 51.5771,
      "long": -0.7105,
      "tlc": "BNE"
   },
   "305": {
      "name": "Bournemouth",
      "lat": 50.7273,
      "long": -1.8645,
      "tlc": "BMH"
   },
   "306": {
      "name": "Bournville",
      "lat": 52.427,
      "long": -1.9264,
      "tlc": "BRV"
   },
   "307": {
      "name": "Bow Brickhill",
      "lat": 52.0043,
      "long": -0.6961,
      "tlc": "BWB"
   },
   "308": {
      "name": "Bowes Park",
      "lat": 51.607,
      "long": -0.1206,
      "tlc": "BOP"
   },
   "309": {
      "name": "Bowling",
      "lat": 55.9311,
      "long": -4.4938,
      "tlc": "BWG"
   },
   "310": {
      "name": "Box Hill and Westhumble",
      "lat": 51.254,
      "long": -0.3285,
      "tlc": "BXW"
   },
   "311": {
      "name": "Bracknell",
      "lat": 51.4131,
      "long": -0.7517,
      "tlc": "BCE"
   },
   "312": {
      "name": "Bradford Forster Square",
      "lat": 53.7969,
      "long": -1.753,
      "tlc": "BDQ"
   },
   "313": {
      "name": "Bradford Interchange",
      "lat": 53.7911,
      "long": -1.7496,
      "tlc": "BDI"
   },
   "314": {
      "name": "Bradford-On-Avon",
      "lat": 51.3449,
      "long": -2.2523,
      "tlc": "BOA"
   },
   "315": {
      "name": "Brading",
      "lat": 50.6784,
      "long": -1.1387,
      "tlc": "BDN"
   },
   "316": {
      "name": "Braintree",
      "lat": 51.8754,
      "long": 0.5567,
      "tlc": "BTR"
   },
   "317": {
      "name": "Braintree Freeport",
      "lat": 51.8694,
      "long": 0.5684,
      "tlc": "BTP"
   },
   "318": {
      "name": "Bramhall",
      "lat": 53.3606,
      "long": -2.1636,
      "tlc": "BML"
   },
   "319": {
      "name": "Bramley (Hampshire)",
      "lat": 51.3303,
      "long": -1.061,
      "tlc": "BMY"
   },
   "320": {
      "name": "Bramley (West Yorkshire)",
      "lat": 53.8053,
      "long": -1.6372,
      "tlc": "BLE"
   },
   "321": {
      "name": "Brampton (Cumbria)",
      "lat": 54.9324,
      "long": -2.7029,
      "tlc": "BMP"
   },
   "322": {
      "name": "Brampton (Suffolk)",
      "lat": 52.3954,
      "long": 1.5438,
      "tlc": "BRP"
   },
   "323": {
      "name": "Branchton",
      "lat": 55.9406,
      "long": -4.8035,
      "tlc": "BCN"
   },
   "324": {
      "name": "Brandon",
      "lat": 52.454,
      "long": 0.6247,
      "tlc": "BND"
   },
   "325": {
      "name": "Branksome",
      "lat": 50.727,
      "long": -1.9198,
      "tlc": "BSM"
   },
   "326": {
      "name": "Braystones",
      "lat": 54.4394,
      "long": -3.5418,
      "tlc": "BYS"
   },
   "327": {
      "name": "Bredbury",
      "lat": 53.4232,
      "long": -2.1105,
      "tlc": "BDY"
   },
   "328": {
      "name": "Breich",
      "lat": 55.8273,
      "long": -3.6681,
      "tlc": "BRC"
   },
   "329": {
      "name": "Brentford",
      "lat": 51.4875,
      "long": -0.3097,
      "tlc": "BFD"
   },
   "330": {
      "name": "Brentwood",
      "lat": 51.6136,
      "long": 0.2996,
      "tlc": "BRE"
   },
   "331": {
      "name": "Bricket Wood",
      "lat": 51.7054,
      "long": -0.3591,
      "tlc": "BWO"
   },
   "332": {
      "name": "Bridge Of Allan",
      "lat": 56.1566,
      "long": -3.9572,
      "tlc": "BEA"
   },
   "333": {
      "name": "Bridge Of Orchy",
      "lat": 56.5159,
      "long": -4.763,
      "tlc": "BRO"
   },
   "334": {
      "name": "Bridgend",
      "lat": 51.507,
      "long": -3.5753,
      "tlc": "BGN"
   },
   "335": {
      "name": "Bridgeton",
      "lat": 55.849,
      "long": -4.2261,
      "tlc": "BDG"
   },
   "336": {
      "name": "Bridgwater",
      "lat": 51.1279,
      "long": -2.9904,
      "tlc": "BWT"
   },
   "337": {
      "name": "Bridlington",
      "lat": 54.0841,
      "long": -0.1987,
      "tlc": "BDT"
   },
   "338": {
      "name": "Brierfield",
      "lat": 53.824,
      "long": -2.2365,
      "tlc": "BRF"
   },
   "339": {
      "name": "Brigg",
      "lat": 53.5491,
      "long": -0.4861,
      "tlc": "BGG"
   },
   "340": {
      "name": "Brighouse",
      "lat": 53.6982,
      "long": -1.7794,
      "tlc": "BGH"
   },
   "341": {
      "name": "Brighton",
      "lat": 50.829,
      "long": -0.1413,
      "tlc": "BTN"
   },
   "342": {
      "name": "Brimsdown",
      "lat": 51.6556,
      "long": -0.0308,
      "tlc": "BMD"
   },
   "343": {
      "name": "Brinnington",
      "lat": 53.4321,
      "long": -2.1351,
      "tlc": "BNT"
   },
   "344": {
      "name": "Bristol Parkway",
      "lat": 51.5138,
      "long": -2.5422,
      "tlc": "BPW"
   },
   "345": {
      "name": "Bristol Temple Meads",
      "lat": 51.4491,
      "long": -2.5813,
      "tlc": "BRI"
   },
   "346": {
      "name": "Brithdir",
      "lat": 51.7103,
      "long": -3.2287,
      "tlc": "BHD"
   },
   "347": {
      "name": "Briton Ferry",
      "lat": 51.6379,
      "long": -3.8193,
      "tlc": "BNF"
   },
   "348": {
      "name": "Brixton",
      "lat": 51.4633,
      "long": -0.1142,
      "tlc": "BRX"
   },
   "349": {
      "name": "Broad Green",
      "lat": 53.4065,
      "long": -2.8935,
      "tlc": "BGE"
   },
   "350": {
      "name": "Broadbottom",
      "lat": 53.441,
      "long": -2.0165,
      "tlc": "BDB"
   },
   "351": {
      "name": "Broadstairs",
      "lat": 51.3607,
      "long": 1.4336,
      "tlc": "BSR"
   },
   "352": {
      "name": "Brockenhurst",
      "lat": 50.8168,
      "long": -1.5735,
      "tlc": "BCU"
   },
   "353": {
      "name": "Brockholes",
      "lat": 53.597,
      "long": -1.7697,
      "tlc": "BHS"
   },
   "354": {
      "name": "Brockley",
      "lat": 51.4646,
      "long": -0.0375,
      "tlc": "BCY"
   },
   "355": {
      "name": "Bromborough",
      "lat": 53.3218,
      "long": -2.9869,
      "tlc": "BOM"
   },
   "356": {
      "name": "Bromborough Rake",
      "lat": 53.3299,
      "long": -2.9895,
      "tlc": "BMR"
   },
   "357": {
      "name": "Bromley Cross (Lancs)",
      "lat": 53.614,
      "long": -2.4109,
      "tlc": "BMC"
   },
   "358": {
      "name": "Bromley North",
      "lat": 51.4083,
      "long": 0.017,
      "tlc": "BMN"
   },
   "359": {
      "name": "Bromley South",
      "lat": 51.4,
      "long": 0.0173,
      "tlc": "BMS"
   },
   "360": {
      "name": "Bromsgrove",
      "lat": 52.3223,
      "long": -2.0473,
      "tlc": "BMV"
   },
   "361": {
      "name": "Brondesbury",
      "lat": 51.5452,
      "long": -0.2023,
      "tlc": "BSY"
   },
   "362": {
      "name": "Brondesbury Park",
      "lat": 51.5407,
      "long": -0.2101,
      "tlc": "BSP"
   },
   "363": {
      "name": "Brookmans Park",
      "lat": 51.7211,
      "long": -0.2045,
      "tlc": "BPK"
   },
   "364": {
      "name": "Brookwood",
      "lat": 51.3038,
      "long": -0.6357,
      "tlc": "BKO"
   },
   "365": {
      "name": "Broome",
      "lat": 52.4228,
      "long": -2.8852,
      "tlc": "BME"
   },
   "366": {
      "name": "Broomfleet",
      "lat": 53.7402,
      "long": -0.6718,
      "tlc": "BMF"
   },
   "367": {
      "name": "Brora",
      "lat": 58.013,
      "long": -3.8523,
      "tlc": "BRA"
   },
   "368": {
      "name": "Brough",
      "lat": 53.727,
      "long": -0.5787,
      "tlc": "BUH"
   },
   "369": {
      "name": "Broughty Ferry",
      "lat": 56.4672,
      "long": -2.8732,
      "tlc": "BYF"
   },
   "370": {
      "name": "Broxbourne",
      "lat": 51.7469,
      "long": -0.0111,
      "tlc": "BXB"
   },
   "371": {
      "name": "Bruce Grove",
      "lat": 51.594,
      "long": -0.0699,
      "tlc": "BCV"
   },
   "372": {
      "name": "Brundall",
      "lat": 52.6195,
      "long": 1.4393,
      "tlc": "BDA"
   },
   "373": {
      "name": "Brundall Gardens",
      "lat": 52.6234,
      "long": 1.4184,
      "tlc": "BGA"
   },
   "374": {
      "name": "Brunstane",
      "lat": 55.9425,
      "long": -3.101,
      "tlc": "BSU"
   },
   "375": {
      "name": "Brunswick",
      "lat": 53.3832,
      "long": -2.9761,
      "tlc": "BRW"
   },
   "376": {
      "name": "Bruton",
      "lat": 51.1116,
      "long": -2.4471,
      "tlc": "BRU"
   },
   "377": {
      "name": "Bryn",
      "lat": 53.4999,
      "long": -2.6472,
      "tlc": "BYN"
   },
   "378": {
      "name": "Buckenham",
      "lat": 52.5977,
      "long": 1.4703,
      "tlc": "BUC"
   },
   "379": {
      "name": "Buckley",
      "lat": 53.163,
      "long": -3.0559,
      "tlc": "BCK"
   },
   "380": {
      "name": "Bucknell",
      "lat": 52.3574,
      "long": -2.9474,
      "tlc": "BUK"
   },
   "381": {
      "name": "Buckshaw Parkway",
      "lat": 53.6733,
      "long": -2.6608,
      "tlc": "BSV"
   },
   "382": {
      "name": "Bugle",
      "lat": 50.4004,
      "long": -4.7921,
      "tlc": "BGL"
   },
   "383": {
      "name": "Builth Road",
      "lat": 52.1693,
      "long": -3.427,
      "tlc": "BHR"
   },
   "384": {
      "name": "Bulwell",
      "lat": 52.9997,
      "long": -1.1962,
      "tlc": "BLW"
   },
   "385": {
      "name": "Bures",
      "lat": 51.9712,
      "long": 0.7691,
      "tlc": "BUE"
   },
   "386": {
      "name": "Burgess Hill",
      "lat": 50.9537,
      "long": -0.1274,
      "tlc": "BUG"
   },
   "387": {
      "name": "Burley Park",
      "lat": 53.812,
      "long": -1.5778,
      "tlc": "BUY"
   },
   "388": {
      "name": "Burley-In-Wharfedale",
      "lat": 53.9082,
      "long": -1.7534,
      "tlc": "BUW"
   },
   "389": {
      "name": "Burnage",
      "lat": 53.4212,
      "long": -2.2157,
      "tlc": "BNA"
   },
   "390": {
      "name": "Burneside (Cumbria)",
      "lat": 54.355,
      "long": -2.7667,
      "tlc": "BUD"
   },
   "391": {
      "name": "Burnham",
      "lat": 51.5235,
      "long": -0.6464,
      "tlc": "BNM"
   },
   "392": {
      "name": "Burnham-On-Crouch",
      "lat": 51.6337,
      "long": 0.814,
      "tlc": "BUU"
   },
   "393": {
      "name": "Burnley Barracks",
      "lat": 53.7909,
      "long": -2.2581,
      "tlc": "BUB"
   },
   "394": {
      "name": "Burnley Central",
      "lat": 53.7935,
      "long": -2.245,
      "tlc": "BNC"
   },
   "395": {
      "name": "Burnley Manchester Road",
      "lat": 53.785,
      "long": -2.2489,
      "tlc": "BYM"
   },
   "396": {
      "name": "Burnside (South Lanarkshire)",
      "lat": 55.8169,
      "long": -4.2024,
      "tlc": "BUI"
   },
   "397": {
      "name": "Burntisland",
      "lat": 56.0571,
      "long": -3.2332,
      "tlc": "BTS"
   },
   "398": {
      "name": "Burscough Bridge",
      "lat": 53.6053,
      "long": -2.8409,
      "tlc": "BCB"
   },
   "399": {
      "name": "Burscough Junction",
      "lat": 53.5975,
      "long": -2.8406,
      "tlc": "BCJ"
   },
   "400": {
      "name": "Bursledon",
      "lat": 50.8837,
      "long": -1.305,
      "tlc": "BUO"
   },
   "401": {
      "name": "Burton Joyce",
      "lat": 52.9834,
      "long": -1.0409,
      "tlc": "BUJ"
   },
   "402": {
      "name": "Burton-On-Trent",
      "lat": 52.8058,
      "long": -1.6425,
      "tlc": "BUT"
   },
   "403": {
      "name": "Bury St Edmunds",
      "lat": 52.2538,
      "long": 0.7133,
      "tlc": "BSE"
   },
   "404": {
      "name": "Busby",
      "lat": 55.7803,
      "long": -4.2622,
      "tlc": "BUS"
   },
   "405": {
      "name": "Bush Hill Park",
      "lat": 51.6415,
      "long": -0.0692,
      "tlc": "BHK"
   },
   "406": {
      "name": "Bushey",
      "lat": 51.6458,
      "long": -0.3853,
      "tlc": "BSH"
   },
   "407": {
      "name": "Butlers Lane",
      "lat": 52.5925,
      "long": -1.838,
      "tlc": "BUL"
   },
   "408": {
      "name": "Buxted",
      "lat": 50.99,
      "long": 0.1314,
      "tlc": "BXD"
   },
   "409": {
      "name": "Buxton",
      "lat": 53.2607,
      "long": -1.9129,
      "tlc": "BUX"
   },
   "410": {
      "name": "Byfleet and New Haw",
      "lat": 51.3498,
      "long": -0.4814,
      "tlc": "BFN"
   },
   "411": {
      "name": "Bynea",
      "lat": 51.672,
      "long": -4.0989,
      "tlc": "BYE"
   },
   "412": {
      "name": "Cadoxton",
      "lat": 51.4123,
      "long": -3.2489,
      "tlc": "CAD"
   },
   "413": {
      "name": "Caergwrle",
      "lat": 53.1079,
      "long": -3.0329,
      "tlc": "CGW"
   },
   "414": {
      "name": "Caerphilly",
      "lat": 51.5716,
      "long": -3.2185,
      "tlc": "CPH"
   },
   "415": {
      "name": "Caersws",
      "lat": 52.5161,
      "long": -3.4325,
      "tlc": "CWS"
   },
   "416": {
      "name": "Caldercruix",
      "lat": 55.8879,
      "long": -3.8877,
      "tlc": "CAC"
   },
   "417": {
      "name": "Caldicot",
      "lat": 51.5848,
      "long": -2.7606,
      "tlc": "CDT"
   },
   "418": {
      "name": "Caledonian Road and Barnsbury",
      "lat": 51.543,
      "long": -0.1167,
      "tlc": "CIR"
   },
   "419": {
      "name": "Calstock",
      "lat": 50.4978,
      "long": -4.209,
      "tlc": "CSK"
   },
   "420": {
      "name": "Cam and Dursley",
      "lat": 51.7176,
      "long": -2.3591,
      "tlc": "CDU"
   },
   "421": {
      "name": "Camberley",
      "lat": 51.3363,
      "long": -0.7443,
      "tlc": "CAM"
   },
   "422": {
      "name": "Camborne",
      "lat": 50.2104,
      "long": -5.2974,
      "tlc": "CBN"
   },
   "423": {
      "name": "Cambridge",
      "lat": 52.1941,
      "long": 0.1375,
      "tlc": "CBG"
   },
   "424": {
      "name": "Cambridge Heath",
      "lat": 51.532,
      "long": -0.0573,
      "tlc": "CBH"
   },
   "425": {
      "name": "Cambridge North",
      "lat": 52.2245,
      "long": 0.1585,
      "tlc": "CMB"
   },
   "426": {
      "name": "Cambuslang",
      "lat": 55.8196,
      "long": -4.173,
      "tlc": "CBL"
   },
   "427": {
      "name": "Camden Road",
      "lat": 51.5418,
      "long": -0.1387,
      "tlc": "CMD"
   },
   "428": {
      "name": "Camelon",
      "lat": 56.0061,
      "long": -3.8176,
      "tlc": "CMO"
   },
   "429": {
      "name": "Canada Water",
      "lat": 51.498,
      "long": -0.0497,
      "tlc": "ZCW"
   },
   "430": {
      "name": "Canley",
      "lat": 52.3992,
      "long": -1.5476,
      "tlc": "CNL"
   },
   "431": {
      "name": "Cannock",
      "lat": 52.6862,
      "long": -2.0221,
      "tlc": "CAO"
   },
   "432": {
      "name": "Cannon Street",
      "lat": 51.5114,
      "long": -0.0903,
      "tlc": "CST"
   },
   "433": {
      "name": "Canonbury",
      "lat": 51.5487,
      "long": -0.0922,
      "tlc": "CNN"
   },
   "434": {
      "name": "Canterbury East",
      "lat": 51.2743,
      "long": 1.076,
      "tlc": "CBE"
   },
   "435": {
      "name": "Canterbury West",
      "lat": 51.2843,
      "long": 1.0753,
      "tlc": "CBW"
   },
   "436": {
      "name": "Cantley",
      "lat": 52.5787,
      "long": 1.5134,
      "tlc": "CNY"
   },
   "437": {
      "name": "Capenhurst",
      "lat": 53.2602,
      "long": -2.9423,
      "tlc": "CPU"
   },
   "438": {
      "name": "Carbis Bay",
      "lat": 50.1971,
      "long": -5.4633,
      "tlc": "CBB"
   },
   "439": {
      "name": "Cardenden",
      "lat": 56.1413,
      "long": -3.2616,
      "tlc": "CDD"
   },
   "440": {
      "name": "Cardiff Bay",
      "lat": 51.4671,
      "long": -3.1664,
      "tlc": "CDB"
   },
   "441": {
      "name": "Cardiff Central",
      "lat": 51.476,
      "long": -3.1793,
      "tlc": "CDF"
   },
   "442": {
      "name": "Cardiff Queen Street",
      "lat": 51.482,
      "long": -3.1702,
      "tlc": "CDQ"
   },
   "443": {
      "name": "Cardonald",
      "lat": 55.8526,
      "long": -4.3407,
      "tlc": "CDO"
   },
   "444": {
      "name": "Cardross",
      "lat": 55.9604,
      "long": -4.6531,
      "tlc": "CDR"
   },
   "445": {
      "name": "Carfin",
      "lat": 55.8073,
      "long": -3.9563,
      "tlc": "CRF"
   },
   "446": {
      "name": "Cark and Cartmel",
      "lat": 54.178,
      "long": -2.9741,
      "tlc": "CAK"
   },
   "447": {
      "name": "Carlisle",
      "lat": 54.8907,
      "long": -2.9332,
      "tlc": "CAR"
   },
   "448": {
      "name": "Carlton",
      "lat": 52.9651,
      "long": -1.0787,
      "tlc": "CTO"
   },
   "449": {
      "name": "Carluke",
      "lat": 55.7313,
      "long": -3.8489,
      "tlc": "CLU"
   },
   "450": {
      "name": "Carmarthen",
      "lat": 51.8534,
      "long": -4.306,
      "tlc": "CMN"
   },
   "451": {
      "name": "Carmyle",
      "lat": 55.8343,
      "long": -4.1582,
      "tlc": "CML"
   },
   "452": {
      "name": "Carnforth",
      "lat": 54.1297,
      "long": -2.7712,
      "tlc": "CNF"
   },
   "453": {
      "name": "Carnoustie",
      "lat": 56.5006,
      "long": -2.7066,
      "tlc": "CAN"
   },
   "454": {
      "name": "Carntyne",
      "lat": 55.8549,
      "long": -4.1786,
      "tlc": "CAY"
   },
   "455": {
      "name": "Carpenders Park",
      "lat": 51.6284,
      "long": -0.3859,
      "tlc": "CPK"
   },
   "456": {
      "name": "Carrbridge",
      "lat": 57.2795,
      "long": -3.8282,
      "tlc": "CAG"
   },
   "457": {
      "name": "Carshalton",
      "lat": 51.3685,
      "long": -0.1664,
      "tlc": "CSH"
   },
   "458": {
      "name": "Carshalton Beeches",
      "lat": 51.3574,
      "long": -0.1698,
      "tlc": "CSB"
   },
   "459": {
      "name": "Carstairs",
      "lat": 55.6911,
      "long": -3.6685,
      "tlc": "CRS"
   },
   "460": {
      "name": "Cartsdyke",
      "lat": 55.9422,
      "long": -4.7316,
      "tlc": "CDY"
   },
   "461": {
      "name": "Castle Bar Park",
      "lat": 51.5229,
      "long": -0.3315,
      "tlc": "CBP"
   },
   "462": {
      "name": "Castle Cary",
      "lat": 51.0998,
      "long": -2.5228,
      "tlc": "CLC"
   },
   "463": {
      "name": "Castleford",
      "lat": 53.7241,
      "long": -1.3547,
      "tlc": "CFD"
   },
   "464": {
      "name": "Castleton (Manchester)",
      "lat": 53.5918,
      "long": -2.1782,
      "tlc": "CAS"
   },
   "465": {
      "name": "Castleton Moor",
      "lat": 54.4671,
      "long": -0.9466,
      "tlc": "CSM"
   },
   "466": {
      "name": "Caterham",
      "lat": 51.2821,
      "long": -0.0783,
      "tlc": "CAT"
   },
   "467": {
      "name": "Catford",
      "lat": 51.4444,
      "long": -0.0263,
      "tlc": "CTF"
   },
   "468": {
      "name": "Catford Bridge",
      "lat": 51.4447,
      "long": -0.0248,
      "tlc": "CFB"
   },
   "469": {
      "name": "Cathays",
      "lat": 51.4889,
      "long": -3.1787,
      "tlc": "CYS"
   },
   "470": {
      "name": "Cathcart",
      "lat": 55.8177,
      "long": -4.2605,
      "tlc": "CCT"
   },
   "471": {
      "name": "Cattal",
      "lat": 53.9974,
      "long": -1.3205,
      "tlc": "CTL"
   },
   "472": {
      "name": "Causeland",
      "lat": 50.4057,
      "long": -4.4664,
      "tlc": "CAU"
   },
   "473": {
      "name": "Cefn-Y-Bedd",
      "lat": 53.0988,
      "long": -3.0311,
      "tlc": "CYB"
   },
   "474": {
      "name": "Chadwell Heath",
      "lat": 51.568,
      "long": 0.129,
      "tlc": "CTH"
   },
   "475": {
      "name": "Chafford Hundred",
      "lat": 51.4856,
      "long": 0.2874,
      "tlc": "CFH"
   },
   "476": {
      "name": "Chalfont and Latimer",
      "lat": 51.6681,
      "long": -0.5605,
      "tlc": "CFO"
   },
   "477": {
      "name": "Chalkwell",
      "lat": 51.5387,
      "long": 0.6706,
      "tlc": "CHW"
   },
   "478": {
      "name": "Chandlers Ford",
      "lat": 50.9837,
      "long": -1.3852,
      "tlc": "CFR"
   },
   "479": {
      "name": "Chapel-En-Le-Frith",
      "lat": 53.3122,
      "long": -1.9188,
      "tlc": "CEF"
   },
   "480": {
      "name": "Chapelton (Devon)",
      "lat": 51.0165,
      "long": -4.0247,
      "tlc": "CPN"
   },
   "481": {
      "name": "Chapeltown (South Yorkshire)",
      "lat": 53.4623,
      "long": -1.4663,
      "tlc": "CLN"
   },
   "482": {
      "name": "Chappel and Wakes Colne",
      "lat": 51.9259,
      "long": 0.7585,
      "tlc": "CWC"
   },
   "483": {
      "name": "Charing (Kent)",
      "lat": 51.2081,
      "long": 0.7903,
      "tlc": "CHG"
   },
   "484": {
      "name": "Charing Cross",
      "lat": 51.508,
      "long": -0.1248,
      "tlc": "CHX"
   },
   "485": {
      "name": "Charing Cross (Glasgow)",
      "lat": 55.8647,
      "long": -4.2698,
      "tlc": "CHC"
   },
   "486": {
      "name": "Charlbury",
      "lat": 51.8724,
      "long": -1.4897,
      "tlc": "CBY"
   },
   "487": {
      "name": "Charlton",
      "lat": 51.4868,
      "long": 0.0313,
      "tlc": "CTN"
   },
   "488": {
      "name": "Chartham",
      "lat": 51.2573,
      "long": 1.018,
      "tlc": "CRT"
   },
   "489": {
      "name": "Chassen Road",
      "lat": 53.4462,
      "long": -2.3682,
      "tlc": "CSR"
   },
   "490": {
      "name": "Chatelherault",
      "lat": 55.7652,
      "long": -4.0047,
      "tlc": "CTE"
   },
   "491": {
      "name": "Chatham",
      "lat": 51.3804,
      "long": 0.5212,
      "tlc": "CTM"
   },
   "492": {
      "name": "Chathill",
      "lat": 55.5367,
      "long": -1.7064,
      "tlc": "CHT"
   },
   "493": {
      "name": "Cheadle Hulme",
      "lat": 53.3759,
      "long": -2.1883,
      "tlc": "CHU"
   },
   "494": {
      "name": "Cheam",
      "lat": 51.3555,
      "long": -0.2142,
      "tlc": "CHE"
   },
   "495": {
      "name": "Cheddington",
      "lat": 51.8579,
      "long": -0.6622,
      "tlc": "CED"
   },
   "496": {
      "name": "Chelford (Cheshire)",
      "lat": 53.2703,
      "long": -2.2806,
      "tlc": "CEL"
   },
   "497": {
      "name": "Chelmsford",
      "lat": 51.7364,
      "long": 0.4686,
      "tlc": "CHM"
   },
   "498": {
      "name": "Chelsfield",
      "lat": 51.3563,
      "long": 0.1091,
      "tlc": "CLD"
   },
   "499": {
      "name": "Cheltenham Spa",
      "lat": 51.8974,
      "long": -2.0996,
      "tlc": "CNM"
   },
   "500": {
      "name": "Chepstow",
      "lat": 51.6402,
      "long": -2.6719,
      "tlc": "CPW"
   },
   "501": {
      "name": "Cherry Tree",
      "lat": 53.7329,
      "long": -2.5184,
      "tlc": "CYT"
   },
   "502": {
      "name": "Chertsey",
      "lat": 51.3871,
      "long": -0.5093,
      "tlc": "CHY"
   },
   "503": {
      "name": "Cheshunt",
      "lat": 51.7029,
      "long": -0.024,
      "tlc": "CHN"
   },
   "504": {
      "name": "Chessington North",
      "lat": 51.364,
      "long": -0.3007,
      "tlc": "CSN"
   },
   "505": {
      "name": "Chessington South",
      "lat": 51.3565,
      "long": -0.3082,
      "tlc": "CSS"
   },
   "506": {
      "name": "Chester",
      "lat": 53.1967,
      "long": -2.8796,
      "tlc": "CTR"
   },
   "507": {
      "name": "Chester Road",
      "lat": 52.5356,
      "long": -1.8325,
      "tlc": "CRD"
   },
   "508": {
      "name": "Chester-Le-Street",
      "lat": 54.8546,
      "long": -1.578,
      "tlc": "CLS"
   },
   "509": {
      "name": "Chesterfield",
      "lat": 53.2382,
      "long": -1.4201,
      "tlc": "CHD"
   },
   "510": {
      "name": "Chestfield and Swalecliffe",
      "lat": 51.3602,
      "long": 1.0669,
      "tlc": "CSW"
   },
   "511": {
      "name": "Chetnole",
      "lat": 50.8664,
      "long": -2.5729,
      "tlc": "CNO"
   },
   "512": {
      "name": "Chichester",
      "lat": 50.8321,
      "long": -0.7817,
      "tlc": "CCH"
   },
   "513": {
      "name": "Chilham",
      "lat": 51.2446,
      "long": 0.9759,
      "tlc": "CIL"
   },
   "514": {
      "name": "Chilworth",
      "lat": 51.2152,
      "long": -0.5248,
      "tlc": "CHL"
   },
   "515": {
      "name": "Chingford",
      "lat": 51.6331,
      "long": 0.0099,
      "tlc": "CHI"
   },
   "516": {
      "name": "Chinley",
      "lat": 53.3403,
      "long": -1.9439,
      "tlc": "CLY"
   },
   "517": {
      "name": "Chippenham",
      "lat": 51.4625,
      "long": -2.1154,
      "tlc": "CPM"
   },
   "518": {
      "name": "Chipstead",
      "lat": 51.3093,
      "long": -0.1695,
      "tlc": "CHP"
   },
   "519": {
      "name": "Chirk",
      "lat": 52.9331,
      "long": -3.0656,
      "tlc": "CRK"
   },
   "520": {
      "name": "Chislehurst",
      "lat": 51.4056,
      "long": 0.0574,
      "tlc": "CIT"
   },
   "521": {
      "name": "Chiswick",
      "lat": 51.4811,
      "long": -0.2678,
      "tlc": "CHK"
   },
   "522": {
      "name": "Cholsey",
      "lat": 51.5702,
      "long": -1.158,
      "tlc": "CHO"
   },
   "523": {
      "name": "Chorley",
      "lat": 53.6525,
      "long": -2.6268,
      "tlc": "CRL"
   },
   "524": {
      "name": "Chorleywood",
      "lat": 51.6542,
      "long": -0.5183,
      "tlc": "CLW"
   },
   "525": {
      "name": "Christchurch",
      "lat": 50.7382,
      "long": -1.7845,
      "tlc": "CHR"
   },
   "526": {
      "name": "Christs Hospital",
      "lat": 51.0507,
      "long": -0.3636,
      "tlc": "CHH"
   },
   "527": {
      "name": "Church and Oswaldtwistle",
      "lat": 53.7505,
      "long": -2.3912,
      "tlc": "CTW"
   },
   "528": {
      "name": "Church Fenton",
      "lat": 53.8266,
      "long": -1.2276,
      "tlc": "CHF"
   },
   "529": {
      "name": "Church Stretton",
      "lat": 52.5374,
      "long": -2.8037,
      "tlc": "CTT"
   },
   "530": {
      "name": "Cilmeri",
      "lat": 52.1505,
      "long": -3.4565,
      "tlc": "CIM"
   },
   "531": {
      "name": "City Thameslink",
      "lat": 51.5139,
      "long": -0.1036,
      "tlc": "CTK"
   },
   "532": {
      "name": "Clacton-on-Sea",
      "lat": 51.794,
      "long": 1.1541,
      "tlc": "CLT"
   },
   "533": {
      "name": "Clandon",
      "lat": 51.264,
      "long": -0.5028,
      "tlc": "CLA"
   },
   "534": {
      "name": "Clapham (North Yorkshire)",
      "lat": 54.1054,
      "long": -2.4104,
      "tlc": "CPY"
   },
   "535": {
      "name": "Clapham High Street",
      "lat": 51.4655,
      "long": -0.1325,
      "tlc": "CLP"
   },
   "536": {
      "name": "Clapham Junction",
      "lat": 51.4642,
      "long": -0.1703,
      "tlc": "CLJ"
   },
   "537": {
      "name": "Clapton",
      "lat": 51.5616,
      "long": -0.057,
      "tlc": "CPT"
   },
   "538": {
      "name": "Clarbeston Road",
      "lat": 51.8517,
      "long": -4.8835,
      "tlc": "CLR"
   },
   "539": {
      "name": "Clarkston",
      "lat": 55.7894,
      "long": -4.2756,
      "tlc": "CKS"
   },
   "540": {
      "name": "Claverdon",
      "lat": 52.2771,
      "long": -1.6966,
      "tlc": "CLV"
   },
   "541": {
      "name": "Claygate",
      "lat": 51.3612,
      "long": -0.3482,
      "tlc": "CLG"
   },
   "542": {
      "name": "Cleethorpes",
      "lat": 53.5619,
      "long": -0.0292,
      "tlc": "CLE"
   },
   "543": {
      "name": "Cleland",
      "lat": 55.8047,
      "long": -3.9102,
      "tlc": "CEA"
   },
   "544": {
      "name": "Clifton (Manchester)",
      "lat": 53.5225,
      "long": -2.3147,
      "tlc": "CLI"
   },
   "545": {
      "name": "Clifton Down",
      "lat": 51.4645,
      "long": -2.6117,
      "tlc": "CFN"
   },
   "546": {
      "name": "Clitheroe",
      "lat": 53.8735,
      "long": -2.3943,
      "tlc": "CLH"
   },
   "547": {
      "name": "Clock House",
      "lat": 51.4086,
      "long": -0.0407,
      "tlc": "CLK"
   },
   "548": {
      "name": "Clunderwen",
      "lat": 51.8405,
      "long": -4.7318,
      "tlc": "CUW"
   },
   "549": {
      "name": "Clydebank",
      "lat": 55.9007,
      "long": -4.4044,
      "tlc": "CYK"
   },
   "550": {
      "name": "Coatbridge Central",
      "lat": 55.8625,
      "long": -4.0319,
      "tlc": "CBC"
   },
   "551": {
      "name": "Coatbridge Sunnyside",
      "lat": 55.8668,
      "long": -4.0283,
      "tlc": "CBS"
   },
   "552": {
      "name": "Coatdyke",
      "lat": 55.8643,
      "long": -4.005,
      "tlc": "COA"
   },
   "553": {
      "name": "Cobham and Stoke D'abernon",
      "lat": 51.3181,
      "long": -0.3893,
      "tlc": "CSD"
   },
   "554": {
      "name": "Codsall",
      "lat": 52.6273,
      "long": -2.2018,
      "tlc": "CSL"
   },
   "555": {
      "name": "Cogan",
      "lat": 51.446,
      "long": -3.1891,
      "tlc": "CGN"
   },
   "556": {
      "name": "Colchester",
      "lat": 51.9007,
      "long": 0.8926,
      "tlc": "COL"
   },
   "557": {
      "name": "Colchester Town",
      "lat": 51.8865,
      "long": 0.9048,
      "tlc": "CET"
   },
   "558": {
      "name": "Coleshill Parkway",
      "lat": 52.5165,
      "long": -1.7082,
      "tlc": "CEH"
   },
   "559": {
      "name": "Collingham",
      "lat": 53.1441,
      "long": -0.7504,
      "tlc": "CLM"
   },
   "560": {
      "name": "Collington",
      "lat": 50.8393,
      "long": 0.4579,
      "tlc": "CLL"
   },
   "561": {
      "name": "Colne",
      "lat": 53.8547,
      "long": -2.1819,
      "tlc": "CNE"
   },
   "562": {
      "name": "Colwall",
      "lat": 52.0799,
      "long": -2.357,
      "tlc": "CWL"
   },
   "563": {
      "name": "Colwyn Bay",
      "lat": 53.2964,
      "long": -3.7254,
      "tlc": "CWB"
   },
   "564": {
      "name": "Combe (Oxon)",
      "lat": 51.8326,
      "long": -1.3941,
      "tlc": "CME"
   },
   "565": {
      "name": "Commondale",
      "lat": 54.4813,
      "long": -0.9751,
      "tlc": "COM"
   },
   "566": {
      "name": "Congleton",
      "lat": 53.1579,
      "long": -2.1926,
      "tlc": "CNG"
   },
   "567": {
      "name": "Conisbrough",
      "lat": 53.4893,
      "long": -1.2343,
      "tlc": "CNS"
   },
   "568": {
      "name": "Connel Ferry",
      "lat": 56.4524,
      "long": -5.3854,
      "tlc": "CON"
   },
   "569": {
      "name": "Conon Bridge",
      "lat": 57.5618,
      "long": -4.4404,
      "tlc": "CBD"
   },
   "570": {
      "name": "Cononley",
      "lat": 53.9176,
      "long": -2.0121,
      "tlc": "CEY"
   },
   "571": {
      "name": "Conway Park",
      "lat": 53.3934,
      "long": -3.0227,
      "tlc": "CNP"
   },
   "572": {
      "name": "Conwy",
      "lat": 53.2801,
      "long": -3.8305,
      "tlc": "CNW"
   },
   "573": {
      "name": "Cooden Beach",
      "lat": 50.8334,
      "long": 0.4269,
      "tlc": "COB"
   },
   "574": {
      "name": "Cookham",
      "lat": 51.5575,
      "long": -0.7221,
      "tlc": "COO"
   },
   "575": {
      "name": "Cooksbridge",
      "lat": 50.9038,
      "long": -0.0092,
      "tlc": "CBR"
   },
   "576": {
      "name": "Coombe Junction Halt",
      "lat": 50.4459,
      "long": -4.4819,
      "tlc": "COE"
   },
   "577": {
      "name": "Copplestone",
      "lat": 50.8145,
      "long": -3.7516,
      "tlc": "COP"
   },
   "578": {
      "name": "Corbridge",
      "lat": 54.9663,
      "long": -2.0184,
      "tlc": "CRB"
   },
   "579": {
      "name": "Corby",
      "lat": 52.4889,
      "long": -0.6883,
      "tlc": "COR"
   },
   "580": {
      "name": "Corfe Castle",
      "lat": 50.6384,
      "long": -2.055,
      "tlc": "CFC"
   },
   "581": {
      "name": "Corkerhill",
      "lat": 55.8375,
      "long": -4.3343,
      "tlc": "CKH"
   },
   "582": {
      "name": "Corkickle",
      "lat": 54.5417,
      "long": -3.5822,
      "tlc": "CKL"
   },
   "583": {
      "name": "Corpach",
      "lat": 56.8428,
      "long": -5.122,
      "tlc": "CPA"
   },
   "584": {
      "name": "Corrour",
      "lat": 56.7602,
      "long": -4.6906,
      "tlc": "CRR"
   },
   "585": {
      "name": "Coryton",
      "lat": 51.5204,
      "long": -3.2318,
      "tlc": "COY"
   },
   "586": {
      "name": "Coseley",
      "lat": 52.5451,
      "long": -2.0858,
      "tlc": "CSY"
   },
   "587": {
      "name": "Cosford",
      "lat": 52.6448,
      "long": -2.3003,
      "tlc": "COS"
   },
   "588": {
      "name": "Cosham",
      "lat": 50.8419,
      "long": -1.0673,
      "tlc": "CSA"
   },
   "589": {
      "name": "Cottingham",
      "lat": 53.7816,
      "long": -0.4064,
      "tlc": "CGM"
   },
   "590": {
      "name": "Cottingley",
      "lat": 53.7678,
      "long": -1.5877,
      "tlc": "COT"
   },
   "591": {
      "name": "Coulsdon South",
      "lat": 51.3158,
      "long": -0.1379,
      "tlc": "CDS"
   },
   "592": {
      "name": "Coulsdon Town",
      "lat": 51.322,
      "long": -0.1345,
      "tlc": "CDN"
   },
   "593": {
      "name": "Coventry",
      "lat": 52.4008,
      "long": -1.5135,
      "tlc": "COV"
   },
   "594": {
      "name": "Coventry Arena",
      "lat": 52.4477,
      "long": -1.4941,
      "tlc": "CAA"
   },
   "595": {
      "name": "Cowden (Kent)",
      "lat": 51.1556,
      "long": 0.11,
      "tlc": "CWN"
   },
   "596": {
      "name": "Cowdenbeath",
      "lat": 56.1121,
      "long": -3.3432,
      "tlc": "COW"
   },
   "597": {
      "name": "Cradley Heath",
      "lat": 52.4697,
      "long": -2.0905,
      "tlc": "CRA"
   },
   "598": {
      "name": "Craigendoran",
      "lat": 55.9948,
      "long": -4.7112,
      "tlc": "CGD"
   },
   "599": {
      "name": "Cramlington",
      "lat": 55.0878,
      "long": -1.5986,
      "tlc": "CRM"
   },
   "600": {
      "name": "Cranbrook (Devon)",
      "lat": 50.7501,
      "long": -3.4204,
      "tlc": "CBK"
   },
   "601": {
      "name": "Craven Arms",
      "lat": 52.4425,
      "long": -2.8374,
      "tlc": "CRV"
   },
   "602": {
      "name": "Crawley",
      "lat": 51.1122,
      "long": -0.1867,
      "tlc": "CRW"
   },
   "603": {
      "name": "Crayford",
      "lat": 51.4483,
      "long": 0.1789,
      "tlc": "CRY"
   },
   "604": {
      "name": "Crediton",
      "lat": 50.7833,
      "long": -3.6468,
      "tlc": "CDI"
   },
   "605": {
      "name": "Cressing (Essex)",
      "lat": 51.8523,
      "long": 0.578,
      "tlc": "CES"
   },
   "606": {
      "name": "Cressington",
      "lat": 53.3588,
      "long": -2.912,
      "tlc": "CSG"
   },
   "607": {
      "name": "Creswell",
      "lat": 53.2641,
      "long": -1.2164,
      "tlc": "CWD"
   },
   "608": {
      "name": "Crewe",
      "lat": 53.0896,
      "long": -2.433,
      "tlc": "CRE"
   },
   "609": {
      "name": "Crewkerne",
      "lat": 50.8735,
      "long": -2.7785,
      "tlc": "CKN"
   },
   "610": {
      "name": "Crews Hill",
      "lat": 51.6845,
      "long": -0.1069,
      "tlc": "CWH"
   },
   "611": {
      "name": "Crianlarich",
      "lat": 56.3905,
      "long": -4.6184,
      "tlc": "CNR"
   },
   "612": {
      "name": "Criccieth",
      "lat": 52.9184,
      "long": -4.2375,
      "tlc": "CCC"
   },
   "613": {
      "name": "Cricklewood",
      "lat": 51.5585,
      "long": -0.2127,
      "tlc": "CRI"
   },
   "614": {
      "name": "Croftfoot",
      "lat": 55.8183,
      "long": -4.2283,
      "tlc": "CFF"
   },
   "615": {
      "name": "Crofton Park",
      "lat": 51.4552,
      "long": -0.0365,
      "tlc": "CFT"
   },
   "616": {
      "name": "Cromer",
      "lat": 52.9301,
      "long": 1.2928,
      "tlc": "CMR"
   },
   "617": {
      "name": "Cromford",
      "lat": 53.1129,
      "long": -1.5492,
      "tlc": "CMF"
   },
   "618": {
      "name": "Crookston",
      "lat": 55.8423,
      "long": -4.3647,
      "tlc": "CKT"
   },
   "619": {
      "name": "Cross Gates",
      "lat": 53.8049,
      "long": -1.4516,
      "tlc": "CRG"
   },
   "620": {
      "name": "Crossflatts",
      "lat": 53.8585,
      "long": -1.8449,
      "tlc": "CFL"
   },
   "621": {
      "name": "Crosshill",
      "lat": 55.8333,
      "long": -4.2568,
      "tlc": "COI"
   },
   "622": {
      "name": "Crosskeys",
      "lat": 51.6209,
      "long": -3.1262,
      "tlc": "CKY"
   },
   "623": {
      "name": "Crossmyloof",
      "lat": 55.834,
      "long": -4.2843,
      "tlc": "CMY"
   },
   "624": {
      "name": "Croston",
      "lat": 53.6676,
      "long": -2.7778,
      "tlc": "CSO"
   },
   "625": {
      "name": "Crouch Hill",
      "lat": 51.5713,
      "long": -0.1171,
      "tlc": "CRH"
   },
   "626": {
      "name": "Crowborough",
      "lat": 51.0464,
      "long": 0.188,
      "tlc": "COH"
   },
   "627": {
      "name": "Crowhurst",
      "lat": 50.8886,
      "long": 0.5013,
      "tlc": "CWU"
   },
   "628": {
      "name": "Crowle",
      "lat": 53.5897,
      "long": -0.8174,
      "tlc": "CWE"
   },
   "629": {
      "name": "Crowthorne",
      "lat": 51.3667,
      "long": -0.8193,
      "tlc": "CRN"
   },
   "630": {
      "name": "Croy",
      "lat": 55.9557,
      "long": -4.036,
      "tlc": "CRO"
   },
   "631": {
      "name": "Crystal Palace",
      "lat": 51.4181,
      "long": -0.0726,
      "tlc": "CYP"
   },
   "632": {
      "name": "Cuddington",
      "lat": 53.2399,
      "long": -2.5993,
      "tlc": "CUD"
   },
   "633": {
      "name": "Cuffley",
      "lat": 51.7087,
      "long": -0.1098,
      "tlc": "CUF"
   },
   "634": {
      "name": "Culham",
      "lat": 51.6538,
      "long": -1.2365,
      "tlc": "CUM"
   },
   "635": {
      "name": "Culrain",
      "lat": 57.9195,
      "long": -4.4043,
      "tlc": "CUA"
   },
   "636": {
      "name": "Cumbernauld",
      "lat": 55.942,
      "long": -3.9803,
      "tlc": "CUB"
   },
   "637": {
      "name": "Cupar",
      "lat": 56.317,
      "long": -3.0088,
      "tlc": "CUP"
   },
   "638": {
      "name": "Curriehill",
      "lat": 55.9006,
      "long": -3.3188,
      "tlc": "CUH"
   },
   "639": {
      "name": "Cuxton",
      "lat": 51.3739,
      "long": 0.4617,
      "tlc": "CUX"
   },
   "640": {
      "name": "Cwmbach",
      "lat": 51.7019,
      "long": -3.4137,
      "tlc": "CMH"
   },
   "641": {
      "name": "Cwmbran",
      "lat": 51.6566,
      "long": -3.0162,
      "tlc": "CWM"
   },
   "642": {
      "name": "Cynghordy",
      "lat": 52.0515,
      "long": -3.7482,
      "tlc": "CYN"
   },
   "643": {
      "name": "Dagenham Dock",
      "lat": 51.5261,
      "long": 0.1461,
      "tlc": "DDK"
   },
   "644": {
      "name": "Daisy Hill",
      "lat": 53.5395,
      "long": -2.5159,
      "tlc": "DSY"
   },
   "645": {
      "name": "Dalgety Bay",
      "lat": 56.0421,
      "long": -3.3677,
      "tlc": "DAG"
   },
   "646": {
      "name": "Dalmally",
      "lat": 56.4012,
      "long": -4.9836,
      "tlc": "DAL"
   },
   "647": {
      "name": "Dalmarnock",
      "lat": 55.8421,
      "long": -4.2177,
      "tlc": "DAK"
   },
   "648": {
      "name": "Dalmeny",
      "lat": 55.9863,
      "long": -3.3816,
      "tlc": "DAM"
   },
   "649": {
      "name": "Dalmuir",
      "lat": 55.9119,
      "long": -4.4267,
      "tlc": "DMR"
   },
   "650": {
      "name": "Dalreoch",
      "lat": 55.9474,
      "long": -4.5779,
      "tlc": "DLR"
   },
   "651": {
      "name": "Dalry",
      "lat": 55.7062,
      "long": -4.7111,
      "tlc": "DLY"
   },
   "652": {
      "name": "Dalston (Cumbria)",
      "lat": 54.8462,
      "long": -2.9889,
      "tlc": "DLS"
   },
   "653": {
      "name": "Dalston Junction",
      "lat": 51.5461,
      "long": -0.0751,
      "tlc": "DLJ"
   },
   "654": {
      "name": "Dalston Kingsland",
      "lat": 51.5481,
      "long": -0.0757,
      "tlc": "DLK"
   },
   "655": {
      "name": "Dalton (Cumbria)",
      "lat": 54.1542,
      "long": -3.179,
      "tlc": "DLT"
   },
   "656": {
      "name": "Dalwhinnie",
      "lat": 56.9352,
      "long": -4.2462,
      "tlc": "DLW"
   },
   "657": {
      "name": "Danby",
      "lat": 54.4662,
      "long": -0.911,
      "tlc": "DNY"
   },
   "658": {
      "name": "Danescourt",
      "lat": 51.5005,
      "long": -3.2339,
      "tlc": "DCT"
   },
   "659": {
      "name": "Danzey",
      "lat": 52.3248,
      "long": -1.8209,
      "tlc": "DZY"
   },
   "660": {
      "name": "Darlington",
      "lat": 54.5204,
      "long": -1.5473,
      "tlc": "DAR"
   },
   "661": {
      "name": "Darnall",
      "lat": 53.3846,
      "long": -1.4126,
      "tlc": "DAN"
   },
   "662": {
      "name": "Darsham",
      "lat": 52.273,
      "long": 1.5235,
      "tlc": "DSM"
   },
   "663": {
      "name": "Dartford",
      "lat": 51.4474,
      "long": 0.2192,
      "tlc": "DFD"
   },
   "664": {
      "name": "Darton",
      "lat": 53.5884,
      "long": -1.5317,
      "tlc": "DRT"
   },
   "665": {
      "name": "Darwen",
      "lat": 53.698,
      "long": -2.4649,
      "tlc": "DWN"
   },
   "666": {
      "name": "Datchet",
      "lat": 51.4831,
      "long": -0.5794,
      "tlc": "DAT"
   },
   "667": {
      "name": "Davenport",
      "lat": 53.3909,
      "long": -2.153,
      "tlc": "DVN"
   },
   "668": {
      "name": "Dawlish",
      "lat": 50.5808,
      "long": -3.4646,
      "tlc": "DWL"
   },
   "669": {
      "name": "Dawlish Warren",
      "lat": 50.5987,
      "long": -3.4436,
      "tlc": "DWW"
   },
   "670": {
      "name": "Deal",
      "lat": 51.223,
      "long": 1.3988,
      "tlc": "DEA"
   },
   "671": {
      "name": "Dean (Wilts)",
      "lat": 51.0425,
      "long": -1.6349,
      "tlc": "DEN"
   },
   "672": {
      "name": "Deansgate",
      "lat": 53.4742,
      "long": -2.2511,
      "tlc": "DGT"
   },
   "673": {
      "name": "Deganwy",
      "lat": 53.2948,
      "long": -3.8334,
      "tlc": "DGY"
   },
   "674": {
      "name": "Deighton",
      "lat": 53.6685,
      "long": -1.7519,
      "tlc": "DHN"
   },
   "675": {
      "name": "Delamere",
      "lat": 53.2288,
      "long": -2.6666,
      "tlc": "DLM"
   },
   "676": {
      "name": "Denby Dale",
      "lat": 53.5726,
      "long": -1.6632,
      "tlc": "DBD"
   },
   "677": {
      "name": "Denham",
      "lat": 51.5788,
      "long": -0.4974,
      "tlc": "DNM"
   },
   "678": {
      "name": "Denham Golf Club",
      "lat": 51.5806,
      "long": -0.5178,
      "tlc": "DGC"
   },
   "679": {
      "name": "Denmark Hill",
      "lat": 51.4682,
      "long": -0.0894,
      "tlc": "DMK"
   },
   "680": {
      "name": "Dent",
      "lat": 54.2824,
      "long": -2.3636,
      "tlc": "DNT"
   },
   "681": {
      "name": "Denton",
      "lat": 53.4569,
      "long": -2.1317,
      "tlc": "DTN"
   },
   "682": {
      "name": "Deptford",
      "lat": 51.4788,
      "long": -0.0263,
      "tlc": "DEP"
   },
   "683": {
      "name": "Derby",
      "lat": 52.9165,
      "long": -1.4634,
      "tlc": "DBY"
   },
   "684": {
      "name": "Derby Road (Ipswich)",
      "lat": 52.0506,
      "long": 1.1826,
      "tlc": "DBR"
   },
   "685": {
      "name": "Devonport",
      "lat": 50.3785,
      "long": -4.1707,
      "tlc": "DPT"
   },
   "686": {
      "name": "Dewsbury",
      "lat": 53.6921,
      "long": -1.6331,
      "tlc": "DEW"
   },
   "687": {
      "name": "Didcot Parkway",
      "lat": 51.611,
      "long": -1.2429,
      "tlc": "DID"
   },
   "688": {
      "name": "Digby and Sowton",
      "lat": 50.714,
      "long": -3.4736,
      "tlc": "DIG"
   },
   "689": {
      "name": "Dilton Marsh",
      "lat": 51.249,
      "long": -2.2079,
      "tlc": "DMH"
   },
   "690": {
      "name": "Dinas (Rhondda)",
      "lat": 51.6178,
      "long": -3.4375,
      "tlc": "DMG"
   },
   "691": {
      "name": "Dinas Powys",
      "lat": 51.4317,
      "long": -3.2184,
      "tlc": "DNS"
   },
   "692": {
      "name": "Dingle Road",
      "lat": 51.4401,
      "long": -3.1806,
      "tlc": "DGL"
   },
   "693": {
      "name": "Dingwall",
      "lat": 57.5942,
      "long": -4.4222,
      "tlc": "DIN"
   },
   "694": {
      "name": "Dinsdale",
      "lat": 54.5147,
      "long": -1.4671,
      "tlc": "DND"
   },
   "695": {
      "name": "Dinting",
      "lat": 53.4493,
      "long": -1.9703,
      "tlc": "DTG"
   },
   "696": {
      "name": "Disley",
      "lat": 53.3582,
      "long": -2.0425,
      "tlc": "DSL"
   },
   "697": {
      "name": "Diss",
      "lat": 52.3737,
      "long": 1.1237,
      "tlc": "DIS"
   },
   "698": {
      "name": "Dockyard (Devonport)",
      "lat": 50.3822,
      "long": -4.1759,
      "tlc": "DOC"
   },
   "699": {
      "name": "Dodworth",
      "lat": 53.5443,
      "long": -1.5317,
      "tlc": "DOD"
   },
   "700": {
      "name": "Dolau",
      "lat": 52.2954,
      "long": -3.2636,
      "tlc": "DOL"
   },
   "701": {
      "name": "Doleham",
      "lat": 50.9186,
      "long": 0.61,
      "tlc": "DLH"
   },
   "702": {
      "name": "Dolgarrog",
      "lat": 53.1864,
      "long": -3.8226,
      "tlc": "DLG"
   },
   "703": {
      "name": "Dolwyddelan",
      "lat": 53.052,
      "long": -3.8851,
      "tlc": "DWD"
   },
   "704": {
      "name": "Doncaster",
      "lat": 53.5221,
      "long": -1.1398,
      "tlc": "DON"
   },
   "705": {
      "name": "Dorchester South",
      "lat": 50.7093,
      "long": -2.4372,
      "tlc": "DCH"
   },
   "706": {
      "name": "Dorchester West",
      "lat": 50.711,
      "long": -2.4425,
      "tlc": "DCW"
   },
   "707": {
      "name": "Dore and Totley",
      "lat": 53.3276,
      "long": -1.5153,
      "tlc": "DOR"
   },
   "708": {
      "name": "Dorking",
      "lat": 51.2409,
      "long": -0.3243,
      "tlc": "DKG"
   },
   "709": {
      "name": "Dorking (Deepdene)",
      "lat": 51.2388,
      "long": -0.3246,
      "tlc": "DPD"
   },
   "710": {
      "name": "Dorking West",
      "lat": 51.2362,
      "long": -0.34,
      "tlc": "DKT"
   },
   "711": {
      "name": "Dormans",
      "lat": 51.1558,
      "long": -0.0043,
      "tlc": "DMS"
   },
   "712": {
      "name": "Dorridge",
      "lat": 52.3721,
      "long": -1.7529,
      "tlc": "DDG"
   },
   "713": {
      "name": "Dove Holes",
      "lat": 53.3,
      "long": -1.8898,
      "tlc": "DVH"
   },
   "714": {
      "name": "Dover Priory",
      "lat": 51.1257,
      "long": 1.3053,
      "tlc": "DVP"
   },
   "715": {
      "name": "Dovercourt",
      "lat": 51.9387,
      "long": 1.2806,
      "tlc": "DVC"
   },
   "716": {
      "name": "Dovey Junction",
      "lat": 52.5644,
      "long": -3.9239,
      "tlc": "DVY"
   },
   "717": {
      "name": "Downham Market",
      "lat": 52.6041,
      "long": 0.3657,
      "tlc": "DOW"
   },
   "718": {
      "name": "Drayton Green",
      "lat": 51.5166,
      "long": -0.3302,
      "tlc": "DRG"
   },
   "719": {
      "name": "Drayton Park",
      "lat": 51.5528,
      "long": -0.1055,
      "tlc": "DYP"
   },
   "720": {
      "name": "Drem",
      "lat": 56.0051,
      "long": -2.786,
      "tlc": "DRM"
   },
   "721": {
      "name": "Driffield",
      "lat": 54.0015,
      "long": -0.4347,
      "tlc": "DRF"
   },
   "722": {
      "name": "Drigg",
      "lat": 54.377,
      "long": -3.4434,
      "tlc": "DRI"
   },
   "723": {
      "name": "Droitwich Spa",
      "lat": 52.2682,
      "long": -2.1584,
      "tlc": "DTW"
   },
   "724": {
      "name": "Dronfield",
      "lat": 53.3014,
      "long": -1.4688,
      "tlc": "DRO"
   },
   "725": {
      "name": "Drumchapel",
      "lat": 55.9048,
      "long": -4.3629,
      "tlc": "DMC"
   },
   "726": {
      "name": "Drumfrochar",
      "lat": 55.9413,
      "long": -4.7748,
      "tlc": "DFR"
   },
   "727": {
      "name": "Drumgelloch",
      "lat": 55.8674,
      "long": -3.9489,
      "tlc": "DRU"
   },
   "728": {
      "name": "Drumry",
      "lat": 55.9046,
      "long": -4.3855,
      "tlc": "DMY"
   },
   "729": {
      "name": "Duddeston",
      "lat": 52.4884,
      "long": -1.8714,
      "tlc": "DUD"
   },
   "730": {
      "name": "Dudley Port",
      "lat": 52.5247,
      "long": -2.0495,
      "tlc": "DDP"
   },
   "731": {
      "name": "Duffield",
      "lat": 52.9884,
      "long": -1.486,
      "tlc": "DFI"
   },
   "732": {
      "name": "Duirinish",
      "lat": 57.32,
      "long": -5.6913,
      "tlc": "DRN"
   },
   "733": {
      "name": "Duke Street",
      "lat": 55.8584,
      "long": -4.213,
      "tlc": "DST"
   },
   "734": {
      "name": "Dullingham",
      "lat": 52.2016,
      "long": 0.3667,
      "tlc": "DUL"
   },
   "735": {
      "name": "Dumbarton Central",
      "lat": 55.9467,
      "long": -4.5669,
      "tlc": "DBC"
   },
   "736": {
      "name": "Dumbarton East",
      "lat": 55.9423,
      "long": -4.5541,
      "tlc": "DBE"
   },
   "737": {
      "name": "Dumbreck",
      "lat": 55.8447,
      "long": -4.3012,
      "tlc": "DUM"
   },
   "738": {
      "name": "Dumfries",
      "lat": 55.0726,
      "long": -3.6043,
      "tlc": "DMF"
   },
   "739": {
      "name": "Dumpton Park",
      "lat": 51.3457,
      "long": 1.4258,
      "tlc": "DMP"
   },
   "740": {
      "name": "Dunbar",
      "lat": 55.9983,
      "long": -2.5133,
      "tlc": "DUN"
   },
   "741": {
      "name": "Dunblane",
      "lat": 56.1859,
      "long": -3.9655,
      "tlc": "DBL"
   },
   "742": {
      "name": "Duncraig",
      "lat": 57.337,
      "long": -5.6371,
      "tlc": "DCG"
   },
   "743": {
      "name": "Dundee",
      "lat": 56.4565,
      "long": -2.9712,
      "tlc": "DEE"
   },
   "744": {
      "name": "Dunfermline Queen Margaret",
      "lat": 56.0806,
      "long": -3.4215,
      "tlc": "DFL"
   },
   "745": {
      "name": "Dunfermline Town",
      "lat": 56.0682,
      "long": -3.4525,
      "tlc": "DFE"
   },
   "746": {
      "name": "Dunkeld and Birnam",
      "lat": 56.5571,
      "long": -3.5784,
      "tlc": "DKD"
   },
   "747": {
      "name": "Dunlop",
      "lat": 55.7119,
      "long": -4.5324,
      "tlc": "DNL"
   },
   "748": {
      "name": "Dunrobin Castle",
      "lat": 57.9855,
      "long": -3.9489,
      "tlc": "DNO"
   },
   "749": {
      "name": "Dunston",
      "lat": 54.9501,
      "long": -1.642,
      "tlc": "DOT"
   },
   "750": {
      "name": "Dunton Green",
      "lat": 51.2965,
      "long": 0.1709,
      "tlc": "DNG"
   },
   "751": {
      "name": "Durham",
      "lat": 54.7794,
      "long": -1.5818,
      "tlc": "DHM"
   },
   "752": {
      "name": "Durrington-On-Sea",
      "lat": 50.8175,
      "long": -0.4115,
      "tlc": "DUR"
   },
   "753": {
      "name": "Dyce",
      "lat": 57.2057,
      "long": -2.1923,
      "tlc": "DYC"
   },
   "754": {
      "name": "Dyffryn Ardudwy",
      "lat": 52.7889,
      "long": -4.1046,
      "tlc": "DYF"
   },
   "755": {
      "name": "Eaglescliffe",
      "lat": 54.5294,
      "long": -1.3494,
      "tlc": "EAG"
   },
   "756": {
      "name": "Ealing Broadway",
      "lat": 51.5148,
      "long": -0.3018,
      "tlc": "EAL"
   },
   "757": {
      "name": "Earlestown",
      "lat": 53.4511,
      "long": -2.6377,
      "tlc": "ERL"
   },
   "758": {
      "name": "Earley",
      "lat": 51.4411,
      "long": -0.918,
      "tlc": "EAR"
   },
   "759": {
      "name": "Earlsfield",
      "lat": 51.4423,
      "long": -0.1877,
      "tlc": "EAD"
   },
   "760": {
      "name": "Earlswood (Surrey)",
      "lat": 51.2273,
      "long": -0.1708,
      "tlc": "ELD"
   },
   "761": {
      "name": "Earlswood (West Midlands)",
      "lat": 52.3666,
      "long": -1.8612,
      "tlc": "EWD"
   },
   "762": {
      "name": "East Croydon",
      "lat": 51.3755,
      "long": -0.0928,
      "tlc": "ECR"
   },
   "763": {
      "name": "East Didsbury",
      "lat": 53.4093,
      "long": -2.222,
      "tlc": "EDY"
   },
   "764": {
      "name": "East Dulwich",
      "lat": 51.4615,
      "long": -0.0806,
      "tlc": "EDW"
   },
   "765": {
      "name": "East Farleigh",
      "lat": 51.2552,
      "long": 0.4847,
      "tlc": "EFL"
   },
   "766": {
      "name": "East Garforth",
      "lat": 53.792,
      "long": -1.3705,
      "tlc": "EGF"
   },
   "767": {
      "name": "East Grinstead",
      "lat": 51.1263,
      "long": -0.0179,
      "tlc": "EGR"
   },
   "768": {
      "name": "East Kilbride",
      "lat": 55.766,
      "long": -4.1802,
      "tlc": "EKL"
   },
   "769": {
      "name": "East Malling",
      "lat": 51.2858,
      "long": 0.4393,
      "tlc": "EML"
   },
   "770": {
      "name": "East Midlands Parkway",
      "lat": 52.8625,
      "long": -1.2632,
      "tlc": "EMD"
   },
   "771": {
      "name": "East Tilbury",
      "lat": 51.4848,
      "long": 0.4129,
      "tlc": "ETL"
   },
   "772": {
      "name": "East Worthing",
      "lat": 50.8216,
      "long": -0.3549,
      "tlc": "EWR"
   },
   "773": {
      "name": "Eastbourne",
      "lat": 50.7694,
      "long": 0.2812,
      "tlc": "EBN"
   },
   "774": {
      "name": "Eastbrook",
      "lat": 51.4376,
      "long": -3.2061,
      "tlc": "EBK"
   },
   "775": {
      "name": "Easterhouse",
      "lat": 55.8598,
      "long": -4.1072,
      "tlc": "EST"
   },
   "776": {
      "name": "Eastham Rake",
      "lat": 53.3075,
      "long": -2.9811,
      "tlc": "ERA"
   },
   "777": {
      "name": "Eastleigh",
      "lat": 50.9693,
      "long": -1.3501,
      "tlc": "ESL"
   },
   "778": {
      "name": "Eastrington",
      "lat": 53.7552,
      "long": -0.7876,
      "tlc": "EGN"
   },
   "779": {
      "name": "Ebbsfleet International",
      "lat": 51.443,
      "long": 0.3209,
      "tlc": "EBD"
   },
   "780": {
      "name": "Ebbw Vale Parkway",
      "lat": 51.7571,
      "long": -3.1961,
      "tlc": "EBV"
   },
   "781": {
      "name": "Ebbw Vale Town",
      "lat": 51.7767,
      "long": -3.2026,
      "tlc": "EBB"
   },
   "782": {
      "name": "Eccles (Manchester)",
      "lat": 53.4854,
      "long": -2.3345,
      "tlc": "ECC"
   },
   "783": {
      "name": "Eccles Road",
      "lat": 52.4709,
      "long": 0.9699,
      "tlc": "ECS"
   },
   "784": {
      "name": "Eccleston Park",
      "lat": 53.4308,
      "long": -2.78,
      "tlc": "ECL"
   },
   "785": {
      "name": "Edale",
      "lat": 53.365,
      "long": -1.8166,
      "tlc": "EDL"
   },
   "786": {
      "name": "Eden Park",
      "lat": 51.3901,
      "long": -0.0264,
      "tlc": "EDN"
   },
   "787": {
      "name": "Edenbridge Town",
      "lat": 51.2001,
      "long": 0.0672,
      "tlc": "EBT"
   },
   "788": {
      "name": "Edenbridge(Kent)",
      "lat": 51.2084,
      "long": 0.0606,
      "tlc": "EBR"
   },
   "789": {
      "name": "Edge Hill",
      "lat": 53.4026,
      "long": -2.9465,
      "tlc": "EDG"
   },
   "790": {
      "name": "Edinburgh",
      "lat": 55.9524,
      "long": -3.1882,
      "tlc": "EDB"
   },
   "791": {
      "name": "Edinburgh Gateway",
      "lat": 55.9409,
      "long": -3.3203,
      "tlc": "EGY"
   },
   "792": {
      "name": "Edinburgh Park",
      "lat": 55.9276,
      "long": -3.3077,
      "tlc": "EDP"
   },
   "793": {
      "name": "Edmonton Green",
      "lat": 51.6249,
      "long": -0.0611,
      "tlc": "EDR"
   },
   "794": {
      "name": "Effingham Junction",
      "lat": 51.2915,
      "long": -0.42,
      "tlc": "EFF"
   },
   "795": {
      "name": "Eggesford",
      "lat": 50.8877,
      "long": -3.8747,
      "tlc": "EGG"
   },
   "796": {
      "name": "Egham",
      "lat": 51.4296,
      "long": -0.5465,
      "tlc": "EGH"
   },
   "797": {
      "name": "Egton",
      "lat": 54.4375,
      "long": -0.7615,
      "tlc": "EGT"
   },
   "798": {
      "name": "Elephant and Castle",
      "lat": 51.494,
      "long": -0.0987,
      "tlc": "EPH"
   },
   "799": {
      "name": "Elgin",
      "lat": 57.6429,
      "long": -3.3112,
      "tlc": "ELG"
   },
   "800": {
      "name": "Ellesmere Port",
      "lat": 53.2822,
      "long": -2.8964,
      "tlc": "ELP"
   },
   "801": {
      "name": "Elmers End",
      "lat": 51.3985,
      "long": -0.0496,
      "tlc": "ELE"
   },
   "802": {
      "name": "Elmstead Woods",
      "lat": 51.4171,
      "long": 0.0443,
      "tlc": "ESD"
   },
   "803": {
      "name": "Elmswell",
      "lat": 52.238,
      "long": 0.9126,
      "tlc": "ESW"
   },
   "804": {
      "name": "Elsecar",
      "lat": 53.4987,
      "long": -1.4274,
      "tlc": "ELR"
   },
   "805": {
      "name": "Elsenham (Essex)",
      "lat": 51.9205,
      "long": 0.2281,
      "tlc": "ESM"
   },
   "806": {
      "name": "Elstree and Borehamwood",
      "lat": 51.6531,
      "long": -0.2801,
      "tlc": "ELS"
   },
   "807": {
      "name": "Eltham",
      "lat": 51.4556,
      "long": 0.0525,
      "tlc": "ELW"
   },
   "808": {
      "name": "Elton and Orston",
      "lat": 52.9521,
      "long": -0.8555,
      "tlc": "ELO"
   },
   "809": {
      "name": "Ely",
      "lat": 52.3912,
      "long": 0.2668,
      "tlc": "ELY"
   },
   "810": {
      "name": "Emerson Park",
      "lat": 51.5686,
      "long": 0.2201,
      "tlc": "EMP"
   },
   "811": {
      "name": "Emsworth",
      "lat": 50.8516,
      "long": -0.9384,
      "tlc": "EMS"
   },
   "812": {
      "name": "Energlyn and Churchill Park",
      "lat": 51.5832,
      "long": -3.2288,
      "tlc": "ECP"
   },
   "813": {
      "name": "Enfield Chase",
      "lat": 51.6533,
      "long": -0.0907,
      "tlc": "ENC"
   },
   "814": {
      "name": "Enfield Lock",
      "lat": 51.6709,
      "long": -0.0285,
      "tlc": "ENL"
   },
   "815": {
      "name": "Enfield Town",
      "lat": 51.652,
      "long": -0.0793,
      "tlc": "ENF"
   },
   "816": {
      "name": "Entwistle",
      "lat": 53.656,
      "long": -2.4145,
      "tlc": "ENT"
   },
   "817": {
      "name": "Epsom",
      "lat": 51.3344,
      "long": -0.2688,
      "tlc": "EPS"
   },
   "818": {
      "name": "Epsom Downs",
      "lat": 51.3237,
      "long": -0.239,
      "tlc": "EPD"
   },
   "819": {
      "name": "Erdington",
      "lat": 52.5283,
      "long": -1.8395,
      "tlc": "ERD"
   },
   "820": {
      "name": "Eridge",
      "lat": 51.089,
      "long": 0.2014,
      "tlc": "ERI"
   },
   "821": {
      "name": "Erith",
      "lat": 51.4817,
      "long": 0.1751,
      "tlc": "ERH"
   },
   "822": {
      "name": "Esher",
      "lat": 51.3799,
      "long": -0.3533,
      "tlc": "ESH"
   },
   "823": {
      "name": "Eskbank",
      "lat": 55.8818,
      "long": -3.0831,
      "tlc": "EKB"
   },
   "824": {
      "name": "Essex Road",
      "lat": 51.5407,
      "long": -0.0963,
      "tlc": "EXR"
   },
   "825": {
      "name": "Etchingham",
      "lat": 51.0105,
      "long": 0.4424,
      "tlc": "ETC"
   },
   "826": {
      "name": "Euston",
      "lat": 51.5281,
      "long": -0.1339,
      "tlc": "EUS"
   },
   "827": {
      "name": "Euxton Balshaw Lane",
      "lat": 53.6605,
      "long": -2.672,
      "tlc": "EBA"
   },
   "828": {
      "name": "Evesham",
      "lat": 52.0984,
      "long": -1.9473,
      "tlc": "EVE"
   },
   "829": {
      "name": "Ewell East",
      "lat": 51.3453,
      "long": -0.2415,
      "tlc": "EWE"
   },
   "830": {
      "name": "Ewell West",
      "lat": 51.35,
      "long": -0.257,
      "tlc": "EWW"
   },
   "831": {
      "name": "Exeter Central",
      "lat": 50.7265,
      "long": -3.5333,
      "tlc": "EXC"
   },
   "832": {
      "name": "Exeter St David's",
      "lat": 50.7293,
      "long": -3.5433,
      "tlc": "EXD"
   },
   "833": {
      "name": "Exeter St Thomas",
      "lat": 50.7172,
      "long": -3.5388,
      "tlc": "EXT"
   },
   "834": {
      "name": "Exhibition Centre (Glasgow)",
      "lat": 55.8616,
      "long": -4.2836,
      "tlc": "EXG"
   },
   "835": {
      "name": "Exmouth",
      "lat": 50.6216,
      "long": -3.415,
      "tlc": "EXM"
   },
   "836": {
      "name": "Exton",
      "lat": 50.6683,
      "long": -3.4441,
      "tlc": "EXN"
   },
   "837": {
      "name": "Eynsford",
      "lat": 51.3627,
      "long": 0.2044,
      "tlc": "EYN"
   },
   "838": {
      "name": "Fairbourne",
      "lat": 52.696,
      "long": -4.0494,
      "tlc": "FRB"
   },
   "839": {
      "name": "Fairfield",
      "lat": 53.4713,
      "long": -2.1458,
      "tlc": "FRF"
   },
   "840": {
      "name": "Fairlie",
      "lat": 55.7519,
      "long": -4.8533,
      "tlc": "FRL"
   },
   "841": {
      "name": "Fairwater",
      "lat": 51.4939,
      "long": -3.2338,
      "tlc": "FRW"
   },
   "842": {
      "name": "Falconwood",
      "lat": 51.4592,
      "long": 0.0793,
      "tlc": "FCN"
   },
   "843": {
      "name": "Falkirk Grahamston",
      "lat": 56.0026,
      "long": -3.785,
      "tlc": "FKG"
   },
   "844": {
      "name": "Falkirk High",
      "lat": 55.9918,
      "long": -3.7922,
      "tlc": "FKK"
   },
   "845": {
      "name": "Falls Of Cruachan",
      "lat": 56.3939,
      "long": -5.1125,
      "tlc": "FOC"
   },
   "846": {
      "name": "Falmer",
      "lat": 50.8621,
      "long": -0.0874,
      "tlc": "FMR"
   },
   "847": {
      "name": "Falmouth Docks",
      "lat": 50.1507,
      "long": -5.056,
      "tlc": "FAL"
   },
   "848": {
      "name": "Falmouth Town",
      "lat": 50.1483,
      "long": -5.0649,
      "tlc": "FMT"
   },
   "849": {
      "name": "Fareham",
      "lat": 50.853,
      "long": -1.192,
      "tlc": "FRM"
   },
   "850": {
      "name": "Farnborough (Main)",
      "lat": 51.2966,
      "long": -0.7557,
      "tlc": "FNB"
   },
   "851": {
      "name": "Farnborough North",
      "lat": 51.302,
      "long": -0.743,
      "tlc": "FNN"
   },
   "852": {
      "name": "Farncombe",
      "lat": 51.1972,
      "long": -0.6045,
      "tlc": "FNC"
   },
   "853": {
      "name": "Farnham",
      "lat": 51.2119,
      "long": -0.7924,
      "tlc": "FNH"
   },
   "854": {
      "name": "Farningham Road",
      "lat": 51.4017,
      "long": 0.2355,
      "tlc": "FNR"
   },
   "855": {
      "name": "Farnworth",
      "lat": 53.55,
      "long": -2.3878,
      "tlc": "FNW"
   },
   "856": {
      "name": "Farringdon",
      "lat": 51.5202,
      "long": -0.1052,
      "tlc": "ZFD"
   },
   "857": {
      "name": "Fauldhouse",
      "lat": 55.8225,
      "long": -3.7193,
      "tlc": "FLD"
   },
   "858": {
      "name": "Faversham",
      "lat": 51.3117,
      "long": 0.891,
      "tlc": "FAV"
   },
   "859": {
      "name": "Faygate",
      "lat": 51.0959,
      "long": -0.263,
      "tlc": "FGT"
   },
   "860": {
      "name": "Fazakerley",
      "lat": 53.4691,
      "long": -2.9367,
      "tlc": "FAZ"
   },
   "861": {
      "name": "Fearn",
      "lat": 57.7781,
      "long": -3.9939,
      "tlc": "FRN"
   },
   "862": {
      "name": "Featherstone",
      "lat": 53.6791,
      "long": -1.3584,
      "tlc": "FEA"
   },
   "863": {
      "name": "Felixstowe",
      "lat": 51.9671,
      "long": 1.3504,
      "tlc": "FLX"
   },
   "864": {
      "name": "Feltham",
      "lat": 51.4479,
      "long": -0.4098,
      "tlc": "FEL"
   },
   "865": {
      "name": "Fenchurch Street",
      "lat": 51.5116,
      "long": -0.0789,
      "tlc": "FST"
   },
   "866": {
      "name": "Feniton",
      "lat": 50.7867,
      "long": -3.2854,
      "tlc": "FNT"
   },
   "867": {
      "name": "Fenny Stratford",
      "lat": 52.0001,
      "long": -0.716,
      "tlc": "FEN"
   },
   "868": {
      "name": "Fernhill",
      "lat": 51.6865,
      "long": -3.3959,
      "tlc": "FER"
   },
   "869": {
      "name": "Ferriby",
      "lat": 53.7172,
      "long": -0.5078,
      "tlc": "FRY"
   },
   "870": {
      "name": "Ferryside",
      "lat": 51.7684,
      "long": -4.3695,
      "tlc": "FYS"
   },
   "871": {
      "name": "Ffairfach",
      "lat": 51.8725,
      "long": -3.9929,
      "tlc": "FFA"
   },
   "872": {
      "name": "Filey",
      "lat": 54.2099,
      "long": -0.2938,
      "tlc": "FIL"
   },
   "873": {
      "name": "Filton Abbey Wood",
      "lat": 51.5049,
      "long": -2.5624,
      "tlc": "FIT"
   },
   "874": {
      "name": "Finchley Road and Frognal",
      "lat": 51.5503,
      "long": -0.1831,
      "tlc": "FNY"
   },
   "875": {
      "name": "Finsbury Park",
      "lat": 51.5643,
      "long": -0.1063,
      "tlc": "FPK"
   },
   "876": {
      "name": "Finstock",
      "lat": 51.8528,
      "long": -1.4693,
      "tlc": "FIN"
   },
   "877": {
      "name": "Fishbourne (Sussex)",
      "lat": 50.8391,
      "long": -0.8151,
      "tlc": "FSB"
   },
   "878": {
      "name": "Fishersgate",
      "lat": 50.8342,
      "long": -0.2194,
      "tlc": "FSG"
   },
   "879": {
      "name": "Fishguard and Goodwick",
      "lat": 52.0041,
      "long": -4.9948,
      "tlc": "FGW"
   },
   "880": {
      "name": "Fishguard Harbour",
      "lat": 52.0115,
      "long": -4.9856,
      "tlc": "FGH"
   },
   "881": {
      "name": "Fiskerton",
      "lat": 53.0603,
      "long": -0.9122,
      "tlc": "FSK"
   },
   "882": {
      "name": "Fitzwilliam",
      "lat": 53.6325,
      "long": -1.3743,
      "tlc": "FZW"
   },
   "883": {
      "name": "Five Ways",
      "lat": 52.4711,
      "long": -1.913,
      "tlc": "FWY"
   },
   "884": {
      "name": "Fleet",
      "lat": 51.2906,
      "long": -0.8308,
      "tlc": "FLE"
   },
   "885": {
      "name": "Flimby",
      "lat": 54.6897,
      "long": -3.5207,
      "tlc": "FLM"
   },
   "886": {
      "name": "Flint",
      "lat": 53.2495,
      "long": -3.133,
      "tlc": "FLN"
   },
   "887": {
      "name": "Flitwick",
      "lat": 52.0036,
      "long": -0.4953,
      "tlc": "FLT"
   },
   "888": {
      "name": "Flixton",
      "lat": 53.4438,
      "long": -2.3842,
      "tlc": "FLI"
   },
   "889": {
      "name": "Flowery Field",
      "lat": 53.4619,
      "long": -2.0811,
      "tlc": "FLF"
   },
   "890": {
      "name": "Folkestone Central",
      "lat": 51.0829,
      "long": 1.1695,
      "tlc": "FKC"
   },
   "891": {
      "name": "Folkestone West",
      "lat": 51.0846,
      "long": 1.1539,
      "tlc": "FKW"
   },
   "892": {
      "name": "Ford",
      "lat": 50.8294,
      "long": -0.5784,
      "tlc": "FOD"
   },
   "893": {
      "name": "Forest Gate",
      "lat": 51.5494,
      "long": 0.0244,
      "tlc": "FOG"
   },
   "894": {
      "name": "Forest Hill",
      "lat": 51.4393,
      "long": -0.0532,
      "tlc": "FOH"
   },
   "895": {
      "name": "Formby",
      "lat": 53.5535,
      "long": -3.0709,
      "tlc": "FBY"
   },
   "896": {
      "name": "Forres",
      "lat": 57.6098,
      "long": -3.626,
      "tlc": "FOR"
   },
   "897": {
      "name": "Forsinard",
      "lat": 58.3569,
      "long": -3.8969,
      "tlc": "FRS"
   },
   "898": {
      "name": "Fort Matilda",
      "lat": 55.959,
      "long": -4.7953,
      "tlc": "FTM"
   },
   "899": {
      "name": "Fort William",
      "lat": 56.8205,
      "long": -5.1061,
      "tlc": "FTW"
   },
   "900": {
      "name": "Four Oaks",
      "lat": 52.5798,
      "long": -1.828,
      "tlc": "FOK"
   },
   "901": {
      "name": "Foxfield",
      "lat": 54.2587,
      "long": -3.2161,
      "tlc": "FOX"
   },
   "902": {
      "name": "Foxton",
      "lat": 52.1192,
      "long": 0.0563,
      "tlc": "FXN"
   },
   "903": {
      "name": "Frant",
      "lat": 51.104,
      "long": 0.2945,
      "tlc": "FRT"
   },
   "904": {
      "name": "Fratton",
      "lat": 50.7963,
      "long": -1.074,
      "tlc": "FTN"
   },